Name,Status,PIUs Listed,Validator,Developer,Country,URL,ID,Total Net Area (ha),Actively Eroding Blanket Bog (hagg/gully),Actively Eroding Blanket Bog (flat/bare),Drained Blanket Bog (artificial),Drained Blanket Bog (hagg/gully),Modified Blanket Bog,Near Natural Blanket Bog,Actively Eroding Raised Bog (hagg/gully),Actively Eroding Raised Bog (flat/bare),Drained Raised Bog (artificial),Drained Raised Bog (hagg/gully),Modified Raised Bog,Near Natural Raised Bog,Cropland (peat > 45 cm) - Drained (bog/fen),"Grassland - intensive, drained (bog/fen)","Grassland - extensive, drained (bog/fen)",Modified Fen,Project duration (years),Total predicted emission reductions over project lifetime (tCO2e),Predicted contribution to buffer over project lifetime (tCO2e),Predicted claimable emission reductions over project lifetime (tCO2e),Latitude,Longitude,Type,Start,Stop
Abergwesyn Hill,Under Development,,Organic Farmers & Growers C.I.C.,National Trust,Wales,https://mer.markit.com/br-reg/public/project.jsp?project_id=104000000027000,104000000027000,143.5,7.65,2.35,0.0,108.2,25.3,0,0.0,0.0,0.0,0.0,0,0,0.0,0.0,0.0,0.0,30,11054,1658,9396,52.220808,-3.681947,Bog,2025,2055
Achnacarry Estate (Phase 1),Validated,Yes,Organic Farmers & Growers C.I.C.,Caledonian Climate,Scotland,https://mer.markit.com/br-reg/public/project.jsp?project_id=104000000026990,104000000026990,119.89,7.26,5.49,0.0,107.14,0.0,0,0.0,0.0,0.0,0.0,0,0,0.0,0.0,0.0,0.0,100,41432,6215,35217,56.991673,-5.056694,Bog,2022,2122
Achnacarry Estate (Phase 2),Under Development,,Soil Association Certification Ltd,Caledonian Climate,Scotland,https://mer.markit.com/br-reg/public/project.jsp?project_id=104000000028524,104000000028524,164.61,10.52,0.25,0.0,153.84,0.0,0,0.0,0.0,0.0,0.0,0,0,0.0,0.0,0.0,0.0,74,34335,5150,29185,57.006974,-5.199627,Bog,2025,2099
Achnacarry Estate (Phase 3),Under Development,,Soil Association Certification Ltd,Caledonian Climate,Scotland,https://mer.markit.com/br-reg/public/project.jsp?project_id=104000000028571,104000000028571,82.02,6.23,0.21,0.0,75.58,0.0,0,0.0,0.0,0.0,0.0,0,0,0.0,0.0,0.0,0.0,100,24791,3719,21072,56.988095,-5.303391,Bog,2025,2125
Achnacarry Estate (Phase 4),Under Development,,Soil Association Certification Ltd,Caledonian Climate,Scotland,https://mer.markit.com/br-reg/public/project.jsp?project_id=104000000028572,104000000028572,109.58,7.61,1.96,0.0,100.01,0.0,0,0.0,0.0,0.0,0.0,0,0,0.0,0.0,0.0,0.0,100,34625,5194,29431,56.952471,-5.186727,Bog,2025,2125
Achnacarry Estate (Phase 5),Under Development,,Soil Association Certification Ltd,Caledonian Climate,Scotland,https://mer.markit.com/br-reg/public/project.jsp?project_id=104000000028558,104000000028558,57.88,0.29,3.95,0.0,53.64,0.0,0,0.0,0.0,0.0,0.0,0,0,0.0,0.0,0.0,0.0,92,15658,2349,13309,56.928103,-5.046558,Bog,2025,2117
Airds Moss Central 1,Under Development,,Soil Association Certification Ltd,RSPB,Scotland,https://mer.markit.com/br-reg/public/project.jsp?project_id=104000000029094,104000000029094,21.84,2.49,0.0,7.44,11.91,0.0,0,0.0,0.0,0.0,0.0,0,0,0.0,0.0,0.0,0.0,100,7561,1134,6427,55.487919,-4.215647,Bog,2025,2125
Allt a' Choire Mhoir,Under Development,,Organic Farmers & Growers C.I.C.,Angus Davidson Ltd,Scotland,https://mer.markit.com/br-reg/public/project.jsp?project_id=104000000028299,104000000028299,163.209,4.933,0.0,35.52,122.756,0.0,0,0.0,0.0,0.0,0.0,0,0,0.0,0.0,0.0,0.0,81,30018,4503,25515,57.662511,-5.005633,Bog,2025,2106
"Allt Coire an-t Sneachda, Cairngorm",Under Development,,Organic Farmers & Growers C.I.C.,Forestry and Land Scotland,Scotland,https://mer.markit.com/br-reg/public/project.jsp?project_id=104000000028085,104000000028085,30.26,1.66,0.0,0.0,28.6,0.0,0,0.0,0.0,0.0,0.0,0,0,0.0,0.0,0.0,0.0,55,4417,662,3755,57.133541,-3.680518,Bog,2025,2080
Allt Gharagain,Under Development,,Organic Farmers & Growers C.I.C.,Angus Davidson Ltd,Scotland,https://mer.markit.com/br-reg/public/project.jsp?project_id=104000000028288,104000000028288,185.17,7.38,0.76,0.0,177.03,0.0,0,0.0,0.0,0.0,0.0,0,0,0.0,0.0,0.0,0.0,96,44164,6625,37539,57.510979,-5.138446,Bog,2025,2121
Ardtalla Area 1,Validated,,Soil Association Certification Ltd,Forest Carbon Ltd,Scotland,https://mer.markit.com/br-reg/public/project.jsp?project_id=104000000028542,104000000028542,108.181,0.0,0.0,108.181,0.0,0.0,0,0.0,0.0,0.0,0.0,0,0,0.0,0.0,0.0,0.0,100,19473,2921,16552,55.673613,-6.057221,Bog,2025,2125
Armboth,Under Development,,,National Trust,England,https://mer.markit.com/br-reg/public/project.jsp?project_id=104000000028852,104000000028852,25.3,0.02,0.02,4.19,21.07,0.0,0,0.0,0.0,0.0,0.0,0,0,0.0,0.0,0.0,0.0,30,1385,242,1143,54.540521,-3.103555,Bog,2025,2055
Badan Seasgach,Validated,,Organic Farmers & Growers C.I.C.,Angus Davidson Ltd,Scotland,https://mer.markit.com/br-reg/public/project.jsp?project_id=104000000028278,104000000028278,74.788,8.984,0.414,0.0,65.39,0.0,0,0.0,0.0,0.0,0.0,0,0,0.0,0.0,0.0,0.0,100,28095,4214,23881,57.839574,-5.005211,Bog,2025,2125
Ballindalloch Estate,Under Development,,,Ballindalloch Trust,Scotland,https://mer.markit.com/br-reg/public/project.jsp?project_id=104000000028066,104000000028066,230.9,23.21,0.26,26.47,180.96,0.0,0,0.0,0.0,0.0,0.0,0,0,0.0,0.0,0.0,0.0,35,27337,4101,23236,57.392473,-3.287163,Bog,2025,2060
Ben Lui Corrie,Restoration Validated,,Organic Farmers & Growers C.I.C.,Forest Carbon Ltd,Scotland,https://mer.markit.com/br-reg/public/project.jsp?project_id=104000000028481,104000000028481,155.32,0.97,0.08,100.86,53.41,0.0,0,0.0,0.0,0.0,0.0,0,0,0.0,0.0,0.0,0.0,50,19555,2933,16622,56.373673,-4.810997,Bog,2025,2075
Ben Wyvis-upper Peffery,Under Development,,"SAC Consulting , SRUC",NatureScot,Scotland,https://mer.markit.com/br-reg/public/project.jsp?project_id=104000000029024,104000000029024,165.16,6.58,0.14,43.58,114.86,0.0,0,0.0,0.0,0.0,0.0,0,0,0.0,0.0,0.0,0.0,100,43054,6458,36596,57.644677,-4.593531,Bog,2025,2125
Bighouse Phase 1,Validated,Yes,Organic Farmers & Growers C.I.C.,Land Carbon Ltd,Scotland,https://mer.markit.com/br-reg/public/project.jsp?project_id=104000000028385,104000000028385,140.17,2.17,0.0,101.9,36.1,0.0,0,0.0,0.0,0.0,0.0,0,0,0.0,0.0,0.0,0.0,100,28609,4291,24318,58.478412,-3.999472,Bog,2022,2122
Bighouse Phase 10,Under Development,,,Land Carbon Ltd,Scotland,https://mer.markit.com/br-reg/public/project.jsp?project_id=104000000029046,104000000029046,111.572,0.447,0.0,95.832,15.293,0.0,0,0.0,0.0,0.0,0.0,0,0,0.0,0.0,0.0,0.0,100,30625,4593,26032,58.447683,-3.831509,Bog,2025,2125
Bighouse Phase 11,Under Development,,,Land Carbon Ltd,Scotland,https://mer.markit.com/br-reg/public/project.jsp?project_id=104000000029069,104000000029069,152.802,0.368,0.0,143.567,8.867,0.0,0,0.0,0.0,0.0,0.0,0,0,0.0,0.0,0.0,0.0,80,33335,5000,28335,58.465217,-3.861566,Bog,2025,2105
Bighouse Phase 12,Under Development,,,Land Carbon Ltd,Scotland,https://mer.markit.com/br-reg/public/project.jsp?project_id=104000000029070,104000000029070,160.169,0.423,0.0,155.473,4.273,0.0,0,0.0,0.0,0.0,0.0,0,0,0.0,0.0,0.0,0.0,85,37161,5574,31587,58.478556,-3.870847,Bog,2025,2110
Bighouse Phase 13,Under Development,,,Land Carbon Ltd,Scotland,https://mer.markit.com/br-reg/public/project.jsp?project_id=104000000029071,104000000029071,215.045,0.99,0.0,197.005,17.05,0.0,0,0.0,0.0,0.0,0.0,0,0,0.0,0.0,0.0,0.0,100,59171,8876,50295,58.478805,-3.853709,Bog,2025,2125
Bighouse Phase 14,Under Development,,,Land Carbon Ltd,Scotland,https://mer.markit.com/br-reg/public/project.jsp?project_id=104000000029072,104000000029072,113.052,0.99,0.0,99.659,12.403,0.0,0,0.0,0.0,0.0,0.0,0,0,0.0,0.0,0.0,0.0,100,31632,4744,26888,58.47032,-3.81896,Bog,2025,2125
Bighouse Phase 15,Under Development,,,Land Carbon Ltd,Scotland,https://mer.markit.com/br-reg/public/project.jsp?project_id=104000000029138,104000000029138,215.24,0.73,0.0,198.21,16.3,0.0,0,0.0,0.0,0.0,0.0,0,0,0.0,0.0,0.0,0.0,75,42547,6382,36165,58.496758,-3.854656,Bog,2025,2100
Bighouse Phase 16,Under Development,,,Land Carbon Ltd,Scotland,https://mer.markit.com/br-reg/public/project.jsp?project_id=104000000029139,104000000029139,118.024,0.23,0.0,111.539,6.255,0.0,0,0.0,0.0,0.0,0.0,0,0,0.0,0.0,0.0,0.0,55,17242,2586,14656,58.514711,-3.855604,Bog,2025,2080
Bighouse Phase 17,Under Development,,,Land Carbon Ltd,Scotland,https://mer.markit.com/br-reg/public/project.jsp?project_id=104000000029140,104000000029140,275.21,0.28,0.01,268.76,6.16,0.0,0,0.0,0.0,0.0,0.0,0,0,0.0,0.0,0.0,0.0,95,70103,10515,59588,58.48851,-3.80275,Bog,2025,2120
Bighouse Phase 18,Under Development,,,Land Carbon Ltd,Scotland,https://mer.markit.com/br-reg/public/project.jsp?project_id=104000000029141,104000000029141,184.721,0.091,0.0,182.72,1.91,0.0,0,0.0,0.0,0.0,0.0,0,0,0.0,0.0,0.0,0.0,85,42254,6338,35916,58.514958,-3.838448,Bog,2025,2110
Bighouse Phase 19,Under Development,,,Land Carbon Ltd,Scotland,https://mer.markit.com/br-reg/public/project.jsp?project_id=104000000029274,104000000029274,131.747,2.086,0.0,68.034,61.627,0.0,0,0.0,0.0,0.0,0.0,0,0,0.0,0.0,0.0,0.0,80,24413,3662,20751,,,Bog,2025,2105
Bighouse Phase 2,Validated,Yes,Organic Farmers & Growers C.I.C.,Land Carbon Ltd,Scotland,https://mer.markit.com/br-reg/public/project.jsp?project_id=104000000028841,104000000028841,94.088,1.163,0.013,43.965,48.947,0.0,0,0.0,0.0,0.0,0.0,0,0,0.0,0.0,0.0,0.0,100,18767,2815,15952,58.47841,-3.99947,Bog,2023,2123
Bighouse Phase 20,Under Development,,,Land Carbon Ltd,Scotland,https://mer.markit.com/br-reg/public/project.jsp?project_id=104000000029277,104000000029277,102.66,1.29,0.0,18.03,83.34,0.0,0,0.0,0.0,0.0,0.0,0,0,0.0,0.0,0.0,0.0,65,13841,2076,11765,,,Bog,2025,2090
Bighouse Phase 3,Under Development,,Organic Farmers & Growers C.I.C.,Land Carbon Ltd,Scotland,https://mer.markit.com/br-reg/public/project.jsp?project_id=104000000028854,104000000028854,116.5,0.3,0.0,108.6,7.6,0.0,0,0.0,0.0,0.0,0.0,0,0,0.0,0.0,0.0,0.0,100,21437,3216,18221,58.481556,-3.970491,Bog,2025,2125
Bighouse Phase 4,Under Development,,Organic Farmers & Growers C.I.C.,Land Carbon Ltd,Scotland,https://mer.markit.com/br-reg/public/project.jsp?project_id=104000000028973,104000000028973,201.68,0.11,0.0,199.71,1.86,0.0,0,0.0,0.0,0.0,0.0,0,0,0.0,0.0,0.0,0.0,95,34650,5198,29452,58.479363,-3.996096,Bog,2025,2120
Bighouse Phase 5,Under Development,,Organic Farmers & Growers C.I.C.,Land Carbon Ltd,Scotland,https://mer.markit.com/br-reg/public/project.jsp?project_id=104000000028974,104000000028974,188.5,0.2,0.0,183.4,4.9,0.0,0,0.0,0.0,0.0,0.0,0,0,0.0,0.0,0.0,0.0,100,34241,5136,29105,58.486514,-3.93989,Bog,2025,2125
Bighouse Phase 6,Under Development,,Organic Farmers & Growers C.I.C.,Land Carbon Ltd,Scotland,https://mer.markit.com/br-reg/public/project.jsp?project_id=104000000028975,104000000028975,190.4,0.3,0.0,186.9,3.2,0.0,0,0.0,0.0,0.0,0.0,0,0,0.0,0.0,0.0,0.0,100,34739,5211,29528,58.453829,-4.020358,Bog,2025,2125
Bighouse Phase 7,Under Development,,Organic Farmers & Growers C.I.C.,Land Carbon Ltd,Scotland,https://mer.markit.com/br-reg/public/project.jsp?project_id=104000000028976,104000000028976,184.25,0.04,0.0,184.08,0.13,0.0,0,0.0,0.0,0.0,0.0,0,0,0.0,0.0,0.0,0.0,100,33227,4984,28243,58.442881,-3.973469,Bog,2025,2125
Bighouse Phase 8,Under Development,,Organic Farmers & Growers C.I.C.,Land Carbon Ltd,Scotland,https://mer.markit.com/br-reg/public/project.jsp?project_id=104000000029019,104000000029019,216.45,0.64,0.0,204.78,11.03,0.0,0,0.0,0.0,0.0,0.0,0,0,0.0,0.0,0.0,0.0,100,39957,5994,33963,58.443636,-3.923821,Bog,2025,2125
Bighouse Phase 9,Under Development,,,Land Carbon Ltd,Scotland,https://mer.markit.com/br-reg/public/project.jsp?project_id=104000000029045,104000000029045,136.198,0.544,0.0,119.072,16.582,0.0,0,0.0,0.0,0.0,0.0,0,0,0.0,0.0,0.0,0.0,70,26168,3925,22243,58.44536,-3.86737,Bog,2025,2095
Bile Buidhe Phase 1,Under Development,,Soil Association Certification Ltd,RSPB,Scotland,https://mer.markit.com/br-reg/public/project.jsp?project_id=104000000029052,104000000029052,111.16,0.0,0.0,0.0,97.95,0.0,0,12.23,0.98,0.0,0.0,0,0,0.0,0.0,0.0,0.0,45,16338,2451,13887,57.18,-3.538,Bog,2025,2070
Birkdale,Under Development,,,Durham County Council (NPAP),England,https://mer.markit.com/br-reg/public/project.jsp?project_id=104000000029104,104000000029104,123.56,9.45,8.08,0.59,105.44,0.0,0,0.0,0.0,0.0,0.0,0,0,0.0,0.0,0.0,0.0,75,32627,4894,27733,,,Bog,2025,2100
Birks Fell and Moor End,Under Development,,Soil Association Certification Ltd,Yorkshire Wildlife Trust,England,https://mer.markit.com/br-reg/public/project.jsp?project_id=104000000028782,104000000028782,50.32,0.05,1.16,10.18,38.93,0.0,0,0.0,0.0,0.0,0.0,0,0,0.0,0.0,0.0,0.0,30,3283,575,2708,54.173444,-2.105666,Bog,2025,2055
Blackburn of Corrieyairack,Restoration Validated,Yes,Organic Farmers & Growers C.I.C.,Caledonian Climate,Scotland,https://mer.markit.com/br-reg/public/project.jsp?project_id=104000000028381,104000000028381,224.08,0.47,0.0,212.69,10.92,0.0,0,0.0,0.0,0.0,0.0,0,0,0.0,0.0,0.0,0.0,100,60184,9028,51156,57.084735,-4.724306,Bog,2022,2122
Black Hill Phase 1,Under Development,,Organic Farmers & Growers C.I.C.,DUCHY OF CORNWALL,England,https://mer.markit.com/br-reg/public/project.jsp?project_id=104000000028127,104000000028127,40.52,3.76,1.68,0.0,35.08,0.0,0,0.0,0.0,0.0,0.0,0,0,0.0,0.0,0.0,0.0,30,4729,709,4020,,,Bog,2025,2055
Blackmount estate – peatland restoration – Phase 1,Under Development,,Soil Association Certification Ltd,Bidwells LLP,Scotland,https://mer.markit.com/br-reg/public/project.jsp?project_id=104000000028574,104000000028574,126.54,1.42,0.0,0.0,125.12,0.0,0,0.0,0.0,0.0,0.0,0,0,0.0,0.0,0.0,0.0,100,26489,3973,22516,56.564674,-4.79097,Bog,2025,2125
Blackmount estate – peatland restoration – Phase 2,Under Development,,Soil Association Certification Ltd,Bidwells LLP,Scotland,https://mer.markit.com/br-reg/public/project.jsp?project_id=104000000028575,104000000028575,99.32,2.17,0.0,0.0,97.15,0.0,0,0.0,0.0,0.0,0.0,0,0,0.0,0.0,0.0,0.0,95,20844,3127,17717,56.639912,-4.842201,Bog,2025,2120
Blaen y Coed,Validated,Yes,Organic Farmers & Growers C.I.C.,National Trust,Wales,https://mer.markit.com/br-reg/public/project.jsp?project_id=104000000027002,104000000027002,177.46,2.81,0.39,61.77,45.82,66.67,0,0.0,0.0,0.0,0.0,0,0,0.0,0.0,0.0,0.0,35,8724,1309,7415,52.993323,-3.790789,Bog,2022,2057
Braemore 3 [Mointeach a' Bhraighe],Under Development,,Organic Farmers & Growers C.I.C.,Angus Davidson Ltd,Scotland,https://mer.markit.com/br-reg/public/project.jsp?project_id=104000000028438,104000000028438,238.009,7.259,0.328,0.0,230.422,0.0,0,0.0,0.0,0.0,0.0,0,0,0.0,0.0,0.0,0.0,92,50560,7583,42977,57.801502,-5.018876,Bog,2025,2117
Bwlch y Groes,Validated,Yes,Organic Farmers & Growers C.I.C.,Forest Carbon Ltd,Wales,https://mer.markit.com/br-reg/public/project.jsp?project_id=104000000026994,104000000026994,65.77,0.77,0.26,0.0,33.66,31.08,0,0.0,0.0,0.0,0.0,0,0,0.0,0.0,0.0,0.0,35,2747,412,2335,52.791804,-3.611943,Bog,2021,2056
Camm Farm - peatland restoration - Phase 3,Validated,,Soil Association Certification Ltd,Bidwells LLP,England,https://mer.markit.com/br-reg/public/project.jsp?project_id=104000000028967,104000000028967,151.55,1.71,0.09,131.98,17.77,0.0,0,0.0,0.0,0.0,0.0,0,0,0.0,0.0,0.0,0.0,85,35234,5285,29949,54.228044,-2.254595,Bog,2025,2110
Carrick Peatland,Under Development,,Organic Farmers & Growers C.I.C.,Pelham Olive,Scotland,https://mer.markit.com/br-reg/public/project.jsp?project_id=104000000027148,104000000027148,114.62,0.47,0.15,100.0,14.0,0.0,0,0.0,0.0,0.0,0.0,0,0,0.0,0.0,0.0,0.0,100,21597,3240,18357,56.110136,-4.971914,Bog,2025,2125
Carroglen,Restoration Validated,Yes,Organic Farmers & Growers C.I.C.,Caledonian Climate,Scotland,https://mer.markit.com/br-reg/public/project.jsp?project_id=104000000028256,104000000028256,59.81,2.21,0.09,19.28,38.23,0.0,0,0.0,0.0,0.0,0.0,0,0,0.0,0.0,0.0,0.0,100,14347,2152,12195,56.427482,-3.979719,Bog,2022,2122
Cashel,Under Development,,Soil Association Certification Ltd,Forest Carbon Ltd,Scotland,https://mer.markit.com/br-reg/public/project.jsp?project_id=104000000028693,104000000028693,145.54,4.46,2.72,26.09,112.27,0.0,0,0.0,0.0,0.0,0.0,0,0,0.0,0.0,0.0,0.0,100,37376,5606,31770,56.1385,-4.547504,Bog,2025,2125
Ceannacroc (Phase 1),Validated,Yes,Organic Farmers & Growers C.I.C.,Angus Davidson Ltd,Scotland,https://mer.markit.com/br-reg/public/project.jsp?project_id=104000000026983,104000000026983,47.58,3.73,1.36,0.0,42.49,0.0,0,0.0,0.0,0.0,0.0,0,0,0.0,0.0,0.0,0.0,100,16490,2474,14016,57.211031,-5.054944,Bog,2022,2122
Cerniau,Validated,Yes,Organic Farmers & Growers C.I.C.,RSPB,Wales,https://mer.markit.com/br-reg/public/project.jsp?project_id=104000000027995,104000000027995,114.64,1.23,0.0,20.19,93.22,0.0,0,0.0,0.0,0.0,0.0,0,0,0.0,0.0,0.0,0.0,65,14658,2199,12459,52.751805,-3.57786,Bog,2024,2089
Clach Liath (Phase 1),Validated,,Soil Association Certification Ltd,Caledonian Climate,Scotland,https://mer.markit.com/br-reg/public/project.jsp?project_id=104000000028605,104000000028605,102.05,8.52,0.4,32.28,60.85,0.0,0,0.0,0.0,0.0,0.0,0,0,0.0,0.0,0.0,0.0,95,30645,4597,26048,57.661721,-4.505885,Bog,2025,2120
Clach Liath (Phase 2),Under Development,,Soil Association Certification Ltd,Caledonian Climate,Scotland,https://mer.markit.com/br-reg/public/project.jsp?project_id=104000000029259,104000000029259,122.58,7.28,0.0,30.85,84.45,0.0,0,0.0,0.0,0.0,0.0,0,0,0.0,0.0,0.0,0.0,90,37123,5568,31555,57.663116,-4.526102,Bog,2025,2115
Clune & Corrybrough Phase 1,Under Development,,Soil Association Certification Ltd,Caledonian Climate,Scotland,https://mer.markit.com/br-reg/public/project.jsp?project_id=104000000029384,104000000029384,43.55,0.0,0.0,0.0,0.0,0.0,0,5.03,0.03,10.86,27.63,0,0,0.0,0.0,0.0,0.0,100,14890,2234,12656,57.325322,-3.90984,Bog,2025,2125
Clunes Beat Project 1,Validated,,Organic Farmers & Growers C.I.C.,RCT Peatland,Scotland,https://mer.markit.com/br-reg/public/project.jsp?project_id=104000000027833,104000000027833,180.913,0.383,0.0,180.53,0.0,0.0,0,0.0,0.0,0.0,0.0,0,0,0.0,0.0,0.0,0.0,100,33161,4974,28187,56.8043,-3.9586,Bog,2025,2125
Corriemulzie (Phases 1-3),Under Development,,Organic Farmers & Growers C.I.C.,Angus Davidson Ltd,Scotland,https://mer.markit.com/br-reg/public/project.jsp?project_id=104000000027139,104000000027139,161.76,20.82,1.2,0.0,139.74,0.0,0,0.0,0.0,0.0,0.0,0,0,0.0,0.0,0.0,0.0,100,63402,9510,53892,57.860671,-4.870392,Bog,2025,2125
Coulin 1 [Meallan Mhic Iamhair],Under Development,,Organic Farmers & Growers C.I.C.,Angus Davidson Ltd,Scotland,https://mer.markit.com/br-reg/public/project.jsp?project_id=104000000029485,104000000029485,198.187,16.36,0.38,0.0,181.447,0.0,0,0.0,0.0,0.0,0.0,0,0,0.0,0.0,0.0,0.0,50,28653,4728,23925,57.544536,-5.233275,Bog,2025,2075
Craigculter,Under Development,,Soil Association Certification Ltd,Forest Carbon Ltd,Scotland,https://mer.markit.com/br-reg/public/project.jsp?project_id=104000000029167,104000000029167,37.36,0.0,12.6,24.76,0.0,0.0,0,0.0,0.0,0.0,0.0,0,0,0.0,0.0,0.0,0.0,30,6870,1030,5840,57.575063,-2.158823,Bog,2025,2055
Craigengillan peatland restoration,Restoration Validated,Yes,Organic Farmers & Growers C.I.C.,Fountains Forestry UK Ltd,Scotland,https://mer.markit.com/br-reg/public/project.jsp?project_id=104000000028024,104000000028024,6.616,0.016,0.0,5.85,0.75,0.0,0,0.0,0.0,0.0,0.0,0,0,0.0,0.0,0.0,0.0,55,669,100,569,55.298002,-4.419295,Bog,2022,2077
Cùl Mòr,Under Development,,Organic Farmers & Growers C.I.C.,Forest Carbon Ltd,Scotland,https://mer.markit.com/br-reg/public/project.jsp?project_id=104000000027352,104000000027352,75.31,2.44,0.0,0.0,72.87,0.0,0,0.0,0.0,0.0,0.0,0,0,0.0,0.0,0.0,0.0,80,14002,2100,11902,,,Bog,2025,2105
Dalnamein,Under Development,,Soil Association Certification Ltd,RCT Peatland,Scotland,https://mer.markit.com/br-reg/public/project.jsp?project_id=104000000028555,104000000028555,27.699,0.0,0.0,27.699,0.0,0.0,0,0.0,0.0,0.0,0.0,0,0,0.0,0.0,0.0,0.0,100,4986,748,4238,56.834435,-4.042134,Bog,2025,2125
Darnbrook Fell and Fountains Fell,Under Development,,Organic Farmers & Growers C.I.C.,Yorkshire Wildlife Trust,England,https://mer.markit.com/br-reg/public/project.jsp?project_id=104000000029037,104000000029037,204.43,0.05,2.97,14.93,186.48,0.0,0,0.0,0.0,0.0,0.0,0,0,0.0,0.0,0.0,0.0,35,15636,2345,13291,54.143705,-2.174476,Bog,2025,2060
Delnadamph: Site 1 – The Fèithe,Validated,Yes,Organic Farmers & Growers C.I.C.,Palladium International Ltd,Scotland,https://mer.markit.com/br-reg/public/project.jsp?project_id=104000000028414,104000000028414,136.36,4.85,1.84,54.07,75.6,0.0,0,0.0,0.0,0.0,0.0,0,0,0.0,0.0,0.0,0.0,100,34961,5244,29717,57.18379,-3.31682,Bog,2024,2124
Delnadamph: Site 2 - Upper River Don,Validated,,Soil Association Certification Ltd,Palladium International Ltd,Scotland,https://mer.markit.com/br-reg/public/project.jsp?project_id=104000000028928,104000000028928,96.27,0.98,0.01,72.82,22.46,0.0,0,0.0,0.0,0.0,0.0,0,0,0.0,0.0,0.0,0.0,50,12681,1902,10779,57.1647,-3.3343,Bog,2025,2075
Delnadamph: Site 3 - Culchavie,Under Development,,Soil Association Certification Ltd,Palladium International Ltd,Scotland,https://mer.markit.com/br-reg/public/project.jsp?project_id=104000000029359,104000000029359,121.404,2.65,0.0,26.085,92.669,0.0,0,0.0,0.0,0.0,0.0,0,0,0.0,0.0,0.0,0.0,100,28717,4308,24409,57.136199,-3.315133,Bog,2025,2125
Delnadamph: Site 4 - Badachurn,Under Development,,Soil Association Certification Ltd,Palladium International Ltd,Scotland,https://mer.markit.com/br-reg/public/project.jsp?project_id=104000000029360,104000000029360,22.622,0.175,0.0,13.054,9.393,0.0,0,0.0,0.0,0.0,0.0,0,0,0.0,0.0,0.0,0.0,100,2172,325,1847,57.152059,-3.25784,Bog,2025,2125
Denton Moor,Under Development,,Soil Association Certification Ltd,Yorkshire Wildlife Trust,England,https://mer.markit.com/br-reg/public/project.jsp?project_id=104000000028998,104000000028998,51.32,0.0,0.06,9.77,41.49,0.0,0,0.0,0.0,0.0,0.0,0,0,0.0,0.0,0.0,0.0,30,3267,572,2695,53.964782,-1.781999,Bog,2025,2055
Dryhope,Restoration Validated,Yes,Organic Farmers & Growers C.I.C.,Forest Carbon Ltd,Scotland,https://mer.markit.com/br-reg/public/project.jsp?project_id=104000000026987,104000000026987,77.05,1.98,0.0,19.67,55.4,0.0,0,0.0,0.0,0.0,0.0,0,0,0.0,0.0,0.0,0.0,45,7628,1144,6484,55.535045,-3.229482,Bog,2018,2063
"Duich Moss, Laggan Estate",Restoration Validated,Yes,Organic Farmers & Growers C.I.C.,Forest Carbon Ltd,Scotland,https://mer.markit.com/br-reg/public/project.jsp?project_id=104000000027807,104000000027807,213.076,0.0,0.0,3.729,209.347,0.0,0,0.0,0.0,0.0,0.0,0,0,0.0,0.0,0.0,0.0,100,42269,6340,35929,55.72081,-6.25651,Bog,2022,2122
Dunlossit D1&D2,Validated,,Organic Farmers & Growers C.I.C.,Caledonian Climate,Scotland,https://mer.markit.com/br-reg/public/project.jsp?project_id=104000000028072,104000000028072,261.94,0.04,0.0,259.82,2.08,0.0,0,0.0,0.0,0.0,0.0,0,0,0.0,0.0,0.0,0.0,100,70613,10592,60021,55.73916,-6.22025,Bog,2025,2125
Dunlossit D4&D10,Under Development,,Soil Association Certification Ltd,Caledonian Climate,Scotland,https://mer.markit.com/br-reg/public/project.jsp?project_id=104000000029299,104000000029299,99.92,1.26,0.0,79.85,18.81,0.0,0,0.0,0.0,0.0,0.0,0,0,0.0,0.0,0.0,0.0,73,20724,3109,17615,55.784683,-6.124635,Bog,2025,2098
Eas Eonan,Under Development,,Soil Association Certification Ltd,Forest Carbon Ltd,Scotland,https://mer.markit.com/br-reg/public/project.jsp?project_id=104000000029168,104000000029168,133.0,3.0,0.0,0.0,130.0,0.0,0,0.0,0.0,0.0,0.0,0,0,0.0,0.0,0.0,0.0,100,29484,4423,25061,56.375362,-4.694496,Bog,2025,2125
Esgair Hengae,Under Development,,Organic Farmers & Growers C.I.C.,Elan Valley Trust,Wales,https://mer.markit.com/br-reg/public/project.jsp?project_id=104000000028901,104000000028901,15.3,1.02,0.0,0.0,14.28,0.0,0,0.0,0.0,0.0,0.0,0,0,0.0,0.0,0.0,0.0,30,1303,195,1108,52.304407,-3.745251,Bog,2025,2055
Fannich (Phases 1-3),Validated,Yes,Organic Farmers & Growers C.I.C.,Angus Davidson Ltd,Scotland,https://mer.markit.com/br-reg/public/project.jsp?project_id=104000000027040,104000000027040,256.99,23.76,2.17,44.0,187.06,0.0,0,0.0,0.0,0.0,0.0,0,0,0.0,0.0,0.0,0.0,100,86631,12995,73636,57.669726,-5.004554,Bog,2022,2122
FLS PC Corries N Dalchork,Validated,,Organic Farmers & Growers C.I.C.,Forestry and Land Scotland,Scotland,https://mer.markit.com/br-reg/public/project.jsp?project_id=104000000028035,104000000028035,367.85,22.86,0.0,0.0,344.99,0.0,0,0.0,0.0,0.0,0.0,0,0,0.0,0.0,0.0,0.0,55,55993,8399,47594,58.164918,-4.393611,Bog,2025,2080
Gadfa,Under Development,,Organic Farmers & Growers C.I.C.,Severn Trent Plc,Wales,https://mer.markit.com/br-reg/public/project.jsp?project_id=104000000028554,104000000028554,233.11,1.77,0.0,69.79,161.55,0.0,0,0.0,0.0,0.0,0.0,0,0,0.0,0.0,0.0,0.0,30,13415,2012,11403,52.786772,-3.585065,Bog,2025,2055
Gaick peatland restoration - Phase 1,Under Development,,Soil Association Certification Ltd,Bidwells LLP,Scotland,https://mer.markit.com/br-reg/public/project.jsp?project_id=104000000029501,104000000029501,79.83,1.32,0.0,0.0,78.51,0.0,0,0.0,0.0,0.0,0.0,0,0,0.0,0.0,0.0,0.0,85,14599,2190,12409,56.970134,-3.985394,Bog,2025,2110
Gannochy Phase 1,Validated,Yes,Soil Association Certification Ltd,Land Carbon Ltd,Scotland,https://mer.markit.com/br-reg/public/project.jsp?project_id=104000000028450,104000000028450,72.6,4.3,5.4,0.0,62.9,0.0,0,0.0,0.0,0.0,0.0,0,0,0.0,0.0,0.0,0.0,100,28281,4242,24039,56.847045,-2.757383,Bog,2023,2123
Garrigill,Under Development,,Soil Association Certification Ltd,Durham County Council (NPAP),England,https://mer.markit.com/br-reg/public/project.jsp?project_id=104000000028675,104000000028675,62.96,0.95,2.45,0.0,59.56,0.0,0,0.0,0.0,0.0,0.0,0,0,0.0,0.0,0.0,0.0,50,8110,1217,6893,54.736136,-2.450353,Bog,2025,2075
"Garron Plateau, Compartment 4",Under Development,,Soil Association Certification Ltd,RSPB,Northern Ireland,https://mer.markit.com/br-reg/public/project.jsp?project_id=104000000028977,104000000028977,104.9,14.79,0.0,7.03,83.08,0.0,0,0.0,0.0,0.0,0.0,0,0,0.0,0.0,0.0,0.0,30,12574,1886,10688,54.980634,-6.124544,Bog,2025,2055
Garynahine Phase 1,Validated,Yes,Soil Association Certification Ltd,Land Carbon Ltd,Scotland,https://mer.markit.com/br-reg/public/project.jsp?project_id=104000000028502,104000000028502,61.0,1.9,0.7,26.9,31.5,0.0,0,0.0,0.0,0.0,0.0,0,0,0.0,0.0,0.0,0.0,100,15028,2254,12774,58.17205,-6.677,Bog,2023,2123
GDM Phase 1,Under Development,,Soil Association Certification Ltd,Scottish Woodlands Ltd,Scotland,https://mer.markit.com/br-reg/public/project.jsp?project_id=104000000029048,104000000029048,147.52,5.06,0.16,22.02,120.28,0.0,0,0.0,0.0,0.0,0.0,0,0,0.0,0.0,0.0,0.0,80,29097,4365,24732,56.913404,-2.615843,Bog,2025,2105
Geltsdale Middle Peatland Code,Under Development,,,Durham County Council (NPAP),England,https://mer.markit.com/br-reg/public/project.jsp?project_id=104000000028803,104000000028803,238.35,11.67,0.0,0.0,226.68,0.0,0,0.0,0.0,0.0,0.0,0,0,0.0,0.0,0.0,0.0,90,53728,8059,45669,54.865787,-2.601371,Bog,2025,2115
Ghlas-choire Fersit (K) & Coire Cregach (Q),Restoration Validated,Yes,Soil Association Certification Ltd,Ossian (Scotland) Limited,Scotland,https://mer.markit.com/br-reg/public/project.jsp?project_id=104000000028564,104000000028564,175.21,12.8,3.31,0.0,156.48,0.0,0,2.62,0.0,0.0,0.0,0,0,0.0,0.0,0.0,0.0,75,41213,6182,35031,56.770474,-4.583637,Bog,2023,2098
Glaslyn,Validated,,Organic Farmers & Growers C.I.C.,Montgomeryshire Wildlife Trust,Wales,https://mer.markit.com/br-reg/public/project.jsp?project_id=104000000026996,104000000026996,34.0,0.0,0.0,11.19,0.0,22.81,0,0.0,0.0,0.0,0.0,0,0,0.0,0.0,0.0,0.0,55,1108,166,942,52.532074,-3.732152,Bog,2025,2080
Glenapp Phase 1,Under Development,,Soil Association Certification Ltd,Glenapp Estate Company Ltd,Scotland,https://mer.markit.com/br-reg/public/project.jsp?project_id=104000000029172,104000000029172,93.01,1.98,0.0,33.88,57.15,0.0,0,0.0,0.0,0.0,0.0,0,0,0.0,0.0,0.0,0.0,70,16072,2411,13661,55.047406,-4.941176,Bog,2025,2095
Glenaros,Under Development,,Organic Farmers & Growers C.I.C.,The Future Forest Company,Scotland,https://mer.markit.com/br-reg/public/project.jsp?project_id=104000000028274,104000000028274,21.0,0.0,0.0,21.0,0.0,0.0,0,0.0,0.0,0.0,0.0,0,0,0.0,0.0,0.0,0.0,100,3780,567,3213,56.532072,-6.004112,Bog,2025,2125
Glencarron 1 [Coire na Glas-lic],Under Development,,,Angus Davidson Ltd,Scotland,https://mer.markit.com/br-reg/public/project.jsp?project_id=104000000029285,104000000029285,83.41,2.83,0.48,0.0,80.1,0.0,0,0.0,0.0,0.0,0.0,0,0,0.0,0.0,0.0,0.0,50,10022,1504,8518,57.516716,-5.160654,Bog,2025,2075
Glenfeshie peatland restoration - Phase 4,Restoration Validated,Yes,Soil Association Certification Ltd,Wildland Limited,Scotland,https://mer.markit.com/br-reg/public/project.jsp?project_id=104000000028283,104000000028283,35.39,1.75,0.0,0.0,33.64,0.0,0,0.0,0.0,0.0,0.0,0,0,0.0,0.0,0.0,0.0,100,9095,1364,7731,56.977231,-3.916332,Bog,2021,2121
Glenfeshie peatland restoration - Phase 5,Restoration Validated,Yes,Soil Association Certification Ltd,Wildland Limited,Scotland,https://mer.markit.com/br-reg/public/project.jsp?project_id=104000000028284,104000000028284,62.01,0.32,0.0,0.0,61.69,0.0,0,0.0,0.0,0.0,0.0,0,0,0.0,0.0,0.0,0.0,90,10494,1574,8920,56.972795,-3.941771,Bog,2022,2112
Glenfeshie peatland restoration - Phase 6,Validated,Yes,Soil Association Certification Ltd,Wildland Limited,Scotland,https://mer.markit.com/br-reg/public/project.jsp?project_id=104000000028446,104000000028446,94.56,0.36,0.0,0.0,94.2,0.0,0,0.0,0.0,0.0,0.0,0,0,0.0,0.0,0.0,0.0,90,15823,2373,13450,56.970548,-3.959093,Bog,2022,2112
Glenfeshie peatland restoration - Phase 7,Under Development,,Soil Association Certification Ltd,Wildland Limited,Scotland,https://mer.markit.com/br-reg/public/project.jsp?project_id=104000000028837,104000000028837,47.393,0.281,0.0,0.0,47.112,0.0,0,0.0,0.0,0.0,0.0,0,0,0.0,0.0,0.0,0.0,70,6278,942,5336,56.956235,-3.955053,Bog,2025,2095
Glen Finglas Peat,Under Development,,Organic Farmers & Growers C.I.C.,Woodland Trust,Scotland,https://mer.markit.com/br-reg/public/project.jsp?project_id=104000000027772,104000000027772,197.87,8.43,0.6,16.5,172.34,0.0,0,0.0,0.0,0.0,0.0,0,0,0.0,0.0,0.0,0.0,100,50044,7507,42537,56.292429,-4.423762,Bog,2025,2125
Glen Finglas Peat Phase 3,Under Development,,Organic Farmers & Growers C.I.C.,Woodland Trust,Scotland,https://mer.markit.com/br-reg/public/project.jsp?project_id=104000000027892,104000000027892,132.804,3.11,0.26,43.3,86.134,0.0,0,0.0,0.0,0.0,0.0,0,0,0.0,0.0,0.0,0.0,50,16506,2476,14030,56.29399,-4.41238,Bog,2025,2075
Glenmuick Peatland Restoration Phase 1,Under Development,,,The Okeover Estate,Scotland,https://mer.markit.com/br-reg/public/project.jsp?project_id=104000000029067,104000000029067,46.19,0.75,0.0,21.83,23.61,0.0,0,0.0,0.0,0.0,0.0,0,0,0.0,0.0,0.0,0.0,100,11513,1727,9786,57.015083,-3.006176,Bog,2025,2125
Glutt 2,Under Development,,,Dunbeath Partnership,Scotland,https://mer.markit.com/br-reg/public/project.jsp?project_id=104000000028253,104000000028253,636.846,10.859,0.0,191.172,434.815,0.0,0,0.0,0.0,0.0,0.0,0,0,0.0,0.0,0.0,0.0,100,131540,19731,111809,58.29622,-3.741777,Bog,2025,2125
Glutt 3,Under Development,,,Dunbeath Partnership,Scotland,https://mer.markit.com/br-reg/public/project.jsp?project_id=104000000028254,104000000028254,29.58,3.294,3.866,0.0,22.42,0.0,0,0.0,0.0,0.0,0.0,0,0,0.0,0.0,0.0,0.0,100,16473,2471,14002,58.29551,-3.79292,Bog,2025,2125
Glutt Estate 1,Restoration Validated,Yes,Organic Farmers & Growers C.I.C.,Dunbeath Partnership,Scotland,https://mer.markit.com/br-reg/public/project.jsp?project_id=104000000026981,104000000026981,409.24,0.83,0.0,371.35,37.06,0.0,0,0.0,0.0,0.0,0.0,0,0,0.0,0.0,0.0,0.0,100,74956,11243,63713,58.30301,-3.704567,Bog,2022,2122
Grianan & Machrie,Validated,,Organic Farmers & Growers C.I.C.,Forest Carbon Ltd,Scotland,https://mer.markit.com/br-reg/public/project.jsp?project_id=104000000028549,104000000028549,42.732,0.0,0.066,41.462,1.204,0.0,0,0.0,0.0,0.0,0.0,0,0,0.0,0.0,0.0,0.0,50,3897,585,3312,55.654904,-6.240253,Bog,2025,2075
Grimersta Estate (Phase 1),Under Development,,Organic Farmers & Growers C.I.C.,Caledonian Climate,Scotland,https://mer.markit.com/br-reg/public/project.jsp?project_id=104000000028557,104000000028557,153.78,12.47,1.89,0.59,138.83,0.0,0,0.0,0.0,0.0,0.0,0,0,0.0,0.0,0.0,0.0,100,50039,7506,42533,58.137722,-6.777948,Bog,2025,2125
Grinton Estate,Under Development,,,Yorkshire Wildlife Trust,England,https://mer.markit.com/br-reg/public/project.jsp?project_id=104000000028439,104000000028439,212.72,1.64,3.49,14.05,193.54,0.0,0,0.0,0.0,0.0,0.0,0,0,0.0,0.0,0.0,0.0,30,14563,2185,12378,54.360425,-1.999966,Bog,2025,2055
Groes Bryn-Llwyd,Under Development,,Organic Farmers & Growers C.I.C.,Snowdonia National Park Authority,Wales,https://mer.markit.com/br-reg/public/project.jsp?project_id=104000000026995,104000000026995,66.0,66.0,0.0,0.0,0.0,0.0,0,0.0,0.0,0.0,0.0,0,0,0.0,0.0,0.0,0.0,30,0,0,0,52.315298,-3.738344,Bog,2025,2055
Gruinard Estate (Phase 1),Validated,,Organic Farmers & Growers C.I.C.,Caledonian Climate,Scotland,https://mer.markit.com/br-reg/public/project.jsp?project_id=104000000026984,104000000026984,175.36,9.97,2.19,163.2,0.0,0.0,0,0.0,0.0,0.0,0.0,0,0,0.0,0.0,0.0,0.0,100,50498,7575,42923,57.747893,-5.189227,Bog,2025,2125
Gruinard Estate (Phase 2),Under Development,,Soil Association Certification Ltd,Caledonian Climate,Scotland,https://mer.markit.com/br-reg/public/project.jsp?project_id=104000000029018,104000000029018,208.16,8.98,3.61,14.21,181.36,0.0,0,0.0,0.0,0.0,0.0,0,0,0.0,0.0,0.0,0.0,55,38623,5793,32830,57.77121,-5.191284,Bog,2025,2080
"Hafod, Lake Vyrnwy",Under Development,,Organic Farmers & Growers C.I.C.,Severn Trent Plc,Wales,https://mer.markit.com/br-reg/public/project.jsp?project_id=104000000029124,104000000029124,136.39,1.24,0.0,79.57,55.58,0.0,0,0.0,0.0,0.0,0.0,0,0,0.0,0.0,0.0,0.0,30,10211,1531,8680,52.771926,-3.551913,Bog,2025,2055
Hangingstone Hill Phase 1,Under Development,,Organic Farmers & Growers C.I.C.,DUCHY OF CORNWALL,England,https://mer.markit.com/br-reg/public/project.jsp?project_id=104000000028128,104000000028128,107.78,6.53,3.66,0.0,97.59,0.0,0,0.0,0.0,0.0,0.0,0,0,0.0,0.0,0.0,0.0,30,10580,1587,8993,50.65264,-3.96199,Bog,2025,2055
Hareden Fell,Under Development,,Organic Farmers & Growers C.I.C.,Yorkshire Wildlife Trust,England,https://mer.markit.com/br-reg/public/project.jsp?project_id=104000000027811,104000000027811,49.887,1.06,1.365,0.0,47.462,0.0,0,0.0,0.0,0.0,0.0,0,0,0.0,0.0,0.0,0.0,35,4465,670,3795,53.922113,-2.60447,Bog,2025,2060
Hengwm,Under Development,,Organic Farmers & Growers C.I.C.,Snowdonia National Park Authority,Wales,https://mer.markit.com/br-reg/public/project.jsp?project_id=104000000027981,104000000027981,38.96,2.56,0.09,12.88,23.43,0.0,0,0.0,0.0,0.0,0.0,0,0,0.0,0.0,0.0,0.0,35,3899,585,3314,52.76764,-3.66885,Bog,2025,2060
Holcombe,Under Development,,,National Trust,England,https://mer.markit.com/br-reg/public/project.jsp?project_id=104000000028993,104000000028993,32.16,0.39,1.25,0.0,30.52,0.0,0,0.0,0.0,0.0,0.0,0,0,0.0,0.0,0.0,0.0,30,2438,366,2072,53.666918,-2.366221,Bog,2025,2055
Holme House Fell,Validated,,Organic Farmers & Growers C.I.C.,Yorkshire Wildlife Trust,England,https://mer.markit.com/br-reg/public/project.jsp?project_id=104000000027270,104000000027270,22.28,0.47,0.0,0.0,21.81,0.0,0,0.0,0.0,0.0,0.0,0,0,0.0,0.0,0.0,0.0,35,1664,250,1414,53.926881,-2.621291,Bog,2025,2060
Invercassley Phase 1 - Carn Beag,Under Development,,Soil Association Certification Ltd,Caledonian Climate,Scotland,https://mer.markit.com/br-reg/public/project.jsp?project_id=104000000029326,104000000029326,247.26,0.13,0.23,246.48,0.42,0.0,0,0.0,0.0,0.0,0.0,0,0,0.0,0.0,0.0,0.0,40,26838,4026,22812,57.988777,-4.640368,Bog,2025,2065
Inverlael 3 [Gleann a' Mhadaidh],Under Development,,Soil Association Certification Ltd,Angus Davidson Ltd,Scotland,https://mer.markit.com/br-reg/public/project.jsp?project_id=104000000028981,104000000028981,122.842,19.983,0.379,0.0,102.48,0.0,0,0.0,0.0,0.0,0.0,0,0,0.0,0.0,0.0,0.0,50,23202,3480,19722,57.826714,-4.97887,Bog,2025,2075
Inverlael Estate (Phase 1),Validated,,Organic Farmers & Growers C.I.C.,Angus Davidson Ltd,Scotland,https://mer.markit.com/br-reg/public/project.jsp?project_id=104000000026988,104000000026988,101.12,9.45,2.76,0.0,88.91,0.0,0,0.0,0.0,0.0,0.0,0,0,0.0,0.0,0.0,0.0,100,37213,5582,31631,57.834669,-4.984583,Bog,2025,2125
Invermark Estate (Phase 1),Under Development,,Organic Farmers & Growers C.I.C.,Angus Davidson Ltd,Scotland,https://mer.markit.com/br-reg/public/project.jsp?project_id=104000000026986,104000000026986,451.64,451.64,0.0,0.0,0.0,0.0,0,0.0,0.0,0.0,0.0,0,0,0.0,0.0,0.0,0.0,30,0,0,0,56.955477,-2.930579,Bog,2025,2055
Killhope Head Peatland Code,Validated,,Organic Farmers & Growers C.I.C.,Durham County Council (NPAP),England,https://mer.markit.com/br-reg/public/project.jsp?project_id=104000000027214,104000000027214,29.17,4.57,0.0,0.0,24.6,0.0,0,0.0,0.0,0.0,0.0,0,0,0.0,0.0,0.0,0.0,30,3710,557,3153,54.789591,-2.312543,Bog,2025,2055
Kinder 24-25,Under Development,,,National Trust,England,https://mer.markit.com/br-reg/public/project.jsp?project_id=104000000029357,104000000029357,349.86,1.24,6.18,0.0,342.44,0.0,0,0.0,0.0,0.0,0.0,0,0,0.0,0.0,0.0,0.0,30,23113,3467,19646,53.390564,-1.86764,Bog,2025,2055
Kingsdale Head,Under Development,,Organic Farmers & Growers C.I.C.,Yorkshire Wildlife Trust,England,https://mer.markit.com/br-reg/public/project.jsp?project_id=104000000028462,104000000028462,233.22,0.02,0.3,178.3,54.6,0.0,0,0.0,0.0,0.0,0.0,0,0,0.0,0.0,0.0,0.0,35,14867,2230,12637,54.217634,-2.437022,Bog,2025,2060
Kinlochdamph Phase 1,Validated,Yes,Organic Farmers & Growers C.I.C.,Land Carbon Ltd,Scotland,https://mer.markit.com/br-reg/public/project.jsp?project_id=104000000028290,104000000028290,91.5,6.3,0.9,35.8,48.5,0.0,0,0.0,0.0,0.0,0.0,0,0,0.0,0.0,0.0,0.0,70,19376,2906,16470,57.435843,-5.595384,Bog,2022,2092
Laggan Phase 2,Validated,,Soil Association Certification Ltd,Forest Carbon Ltd,Scotland,https://mer.markit.com/br-reg/public/project.jsp?project_id=104000000028473,104000000028473,188.833,0.0,0.0,150.543,38.29,0.0,0,0.0,0.0,0.0,0.0,0,0,0.0,0.0,0.0,0.0,75,25492,3824,21668,55.70882,-6.239283,Bog,2025,2100
Laggan Phase 3,Under Development,,,Forest Carbon Ltd,Scotland,https://mer.markit.com/br-reg/public/project.jsp?project_id=104000000028939,104000000028939,81.962,1.351,0.0,44.785,35.826,0.0,0,0.0,0.0,0.0,0.0,0,0,0.0,0.0,0.0,0.0,100,20892,3134,17758,55.6924,-6.16585,Bog,2025,2125
Larriston Fells,Under Development,,Soil Association Certification Ltd,Forest Carbon Ltd,Scotland,https://mer.markit.com/br-reg/public/project.jsp?project_id=104000000028871,104000000028871,42.71,0.0,0.0,42.71,0.0,0.0,0,0.0,0.0,0.0,0.0,0,0,0.0,0.0,0.0,0.0,100,7688,1153,6535,55.238419,-2.658879,Bog,2025,2125
Latheronwheel Estate (Phase 1),Under Development,,Soil Association Certification Ltd,Caledonian Climate,Scotland,https://mer.markit.com/br-reg/public/project.jsp?project_id=104000000029014,104000000029014,284.13,3.24,0.01,199.77,81.11,0.0,0,0.0,0.0,0.0,0.0,0,0,0.0,0.0,0.0,0.0,100,74107,11116,62991,58.356386,-3.455911,Bog,2025,2125
Latheronwheel Estate (Phase 2),Under Development,,Soil Association Certification Ltd,Caledonian Climate,Scotland,https://mer.markit.com/br-reg/public/project.jsp?project_id=104000000029015,104000000029015,280.51,1.52,0.35,242.36,36.28,0.0,0,0.0,0.0,0.0,0.0,0,0,0.0,0.0,0.0,0.0,100,74995,11249,63746,58.354917,-3.426799,Bog,2025,2125
Leadloch Peatland,Under Development,,"SAC Consulting , SRUC",The Future Forest Company,Scotland,https://mer.markit.com/br-reg/public/project.jsp?project_id=104000000029074,104000000029074,24.3,0.0,0.0,24.3,0.0,0.0,0,0.0,0.0,0.0,0.0,0,0,0.0,0.0,0.0,0.0,100,6561,984,5577,55.822633,-3.746143,Bog,2025,2125
Ledgowan Estate (Phase 1-3),Under Development,,Organic Farmers & Growers C.I.C.,Angus Davidson Ltd,Scotland,https://mer.markit.com/br-reg/public/project.jsp?project_id=104000000026985,104000000026985,203.81,203.81,0.0,0.0,0.0,0.0,0,0.0,0.0,0.0,0.0,0,0,0.0,0.0,0.0,0.0,30,0,0,0,57.55785,-5.061975,Bog,2025,2055
Lochrosque Estate (Phase 8),Validated,Yes,Organic Farmers & Growers C.I.C.,Pat Wilson Farms Lochrosque,Scotland,https://mer.markit.com/br-reg/public/project.jsp?project_id=104000000028435,104000000028435,662.47,16.92,0.85,56.03,588.67,0.0,0,0.0,0.0,0.0,0.0,0,0,0.0,0.0,0.0,0.0,100,146912,22037,124875,57.627545,-5.0396,Bog,2023,2123
Loch Rosque Estate (Phases 5-7),Restoration Validated,Yes,Organic Farmers & Growers C.I.C.,Scottish Woodlands Ltd,Scotland,https://mer.markit.com/br-reg/public/project.jsp?project_id=104000000026989,104000000026989,478.66,28.04,14.39,75.9,360.33,0.0,0,0.0,0.0,0.0,0.0,0,0,0.0,0.0,0.0,0.0,100,152222,22833,129389,57.60255,-5.032489,Bog,2021,2121
Lochrosque Estate,Restoration Validated,Yes,Organic Farmers & Growers C.I.C.,Scottish Woodlands Ltd,Scotland,https://mer.markit.com/br-reg/public/project.jsp?project_id=104000000026999,104000000026999,249.08,21.02,16.0,30.21,181.85,0.0,0,0.0,0.0,0.0,0.0,0,0,0.0,0.0,0.0,0.0,100,102475,15371,87104,57.59265,-5.106986,Bog,2019,2119
Lowther Hills,Validated,,Organic Farmers & Growers C.I.C.,Buccleuch Estates Ltd,Scotland,https://mer.markit.com/br-reg/public/project.jsp?project_id=104000000027913,104000000027913,127.36,3.24,0.26,56.33,67.53,0.0,0,0.0,0.0,0.0,0.0,0,0,0.0,0.0,0.0,0.0,100,28374,4256,24118,55.306038,-3.671378,Bog,2025,2125
Lumbister Phase 2,Under Development,,Soil Association Certification Ltd,RSPB,Scotland,https://mer.markit.com/br-reg/public/project.jsp?project_id=104000000028550,104000000028550,147.39,2.59,0.0,73.49,35.59,35.72,0,0.0,0.0,0.0,0.0,0,0,0.0,0.0,0.0,0.0,100,30190,4529,25661,60.620965,-1.104696,Bog,2025,2125
Lynaberack peatland restoration - Phase 3,Validated,,Soil Association Certification Ltd,Wildland Limited,Scotland,https://mer.markit.com/br-reg/public/project.jsp?project_id=104000000028527,104000000028527,48.36,0.3,0.0,0.0,48.06,0.0,0,0.0,0.0,0.0,0.0,0,0,0.0,0.0,0.0,0.0,100,9169,1375,7794,56.967088,-4.06255,Bog,2025,2125
Lynaberack peatland restoration - Phase 4,Under Development,,Soil Association Certification Ltd,Wildland Limited,Scotland,https://mer.markit.com/br-reg/public/project.jsp?project_id=104000000028528,104000000028528,50.526,0.638,0.0,0.0,49.888,0.0,0,0.0,0.0,0.0,0.0,0,0,0.0,0.0,0.0,0.0,100,10088,1513,8575,56.967277,-4.051045,Bog,2025,2125
Maol an t-Srathain,Validated,,Organic Farmers & Growers C.I.C.,Angus Davidson Ltd,Scotland,https://mer.markit.com/br-reg/public/project.jsp?project_id=104000000028287,104000000028287,110.71,5.76,0.0,104.95,0.0,0.0,0,0.0,0.0,0.0,0.0,0,0,0.0,0.0,0.0,0.0,100,28896,4334,24562,57.537109,-4.871629,Bog,2025,2125
Maol Donn Phase 1,Under Development,,Soil Association Certification Ltd,RSPB,Scotland,https://mer.markit.com/br-reg/public/project.jsp?project_id=104000000029178,104000000029178,80.92,1.22,0.0,25.7,54.0,0.0,0,0.0,0.0,0.0,0.0,0,0,0.0,0.0,0.0,0.0,100,19153,2873,16280,58.378098,-3.732131,Bog,2025,2125
Mar Estate (Carn Creagach),Under Development,,Organic Farmers & Growers C.I.C.,Caledonian Climate,Scotland,https://mer.markit.com/br-reg/public/project.jsp?project_id=104000000028496,104000000028496,55.06,2.96,0.55,0.0,51.55,0.0,0,0.0,0.0,0.0,0.0,0,0,0.0,0.0,0.0,0.0,50,8457,1269,7188,56.938817,-3.52842,Bog,2025,2075
Mar Lodge Peatland Restoration 2022,Validated,Yes,Soil Association Certification Ltd,National Trust for Scotland,Scotland,https://mer.markit.com/br-reg/public/project.jsp?project_id=104000000028521,104000000028521,88.395,7.297,0.073,0.0,81.025,0.0,0,0.0,0.0,0.0,0.0,0,0,0.0,0.0,0.0,0.0,60,16432,2465,13967,56.9809,-3.679886,Bog,2023,2083
Mar Lodge Peatland Restoration 2023,Under Development,,Soil Association Certification Ltd,National Trust for Scotland,Scotland,https://mer.markit.com/br-reg/public/project.jsp?project_id=104000000029085,104000000029085,145.0,9.06,0.0,0.0,135.94,0.0,0,0.0,0.0,0.0,0.0,0,0,0.0,0.0,0.0,0.0,40,15382,2307,13075,56.9806,-3.69633,Bog,2025,2065
MDMG Aberarder 20,Under Development,,Organic Farmers & Growers C.I.C.,Strath Caulaidh Ltd,Scotland,https://mer.markit.com/br-reg/public/project.jsp?project_id=104000000028123,104000000028123,63.67,4.64,0.0,0.0,59.03,0.0,0,0.0,0.0,0.0,0.0,0,0,0.0,0.0,0.0,0.0,100,18685,2803,15882,57.27269,-4.245,Bog,2025,2125
MDMG Aberarder 22,Under Development,,Organic Farmers & Growers C.I.C.,Strath Caulaidh Ltd,Scotland,https://mer.markit.com/br-reg/public/project.jsp?project_id=104000000028503,104000000028503,55.49,1.57,0.0,0.63,53.29,0.0,0,0.0,0.0,0.0,0.0,0,0,0.0,0.0,0.0,0.0,100,12433,1865,10568,57.27015,-4.256944,Bog,2025,2125
MDMG Aberarder 23,Under Development,,Organic Farmers & Growers C.I.C.,Strath Caulaidh Ltd,Scotland,https://mer.markit.com/br-reg/public/project.jsp?project_id=104000000029000,104000000029000,82.42,6.33,0.0,0.47,75.62,0.0,0,0.0,0.0,0.0,0.0,0,0,0.0,0.0,0.0,0.0,100,24691,3704,20987,57.269851,-4.273513,Bog,2025,2125
MDMG Balavil 20,Under Development,,Organic Farmers & Growers C.I.C.,Strath Caulaidh Ltd,Scotland,https://mer.markit.com/br-reg/public/project.jsp?project_id=104000000028121,104000000028121,54.1,3.64,0.27,0.0,50.19,0.0,0,0.0,0.0,0.0,0.0,0,0,0.0,0.0,0.0,0.0,100,15826,2374,13452,57.15834,-4.06561,Bog,2025,2125
MDMG Balavil 22,Under Development,,Organic Farmers & Growers C.I.C.,Strath Caulaidh Ltd,Scotland,https://mer.markit.com/br-reg/public/project.jsp?project_id=104000000028504,104000000028504,58.804,5.2,0.004,0.0,53.6,0.0,0,0.0,0.0,0.0,0.0,0,0,0.0,0.0,0.0,0.0,100,18687,2803,15884,57.163717,-4.07184,Bog,2025,2125
MDMG Balavil 23,Under Development,,Organic Farmers & Growers C.I.C.,Strath Caulaidh Ltd,Scotland,https://mer.markit.com/br-reg/public/project.jsp?project_id=104000000029001,104000000029001,56.89,4.55,0.0,0.0,52.34,0.0,0,0.0,0.0,0.0,0.0,0,0,0.0,0.0,0.0,0.0,100,17325,2599,14726,57.156344,-4.082998,Bog,2025,2125
MDMG Braeroy 20,Under Development,,Organic Farmers & Growers C.I.C.,Wildland Limited,Scotland,https://mer.markit.com/br-reg/public/project.jsp?project_id=104000000028120,104000000028120,49.95,4.1,0.24,0.0,45.61,0.0,0,0.0,0.0,0.0,0.0,0,0,0.0,0.0,0.0,0.0,85,13386,2008,11378,56.98281,-4.64078,Bog,2025,2110
MDMG Braeroy 21,Under Development,,Organic Farmers & Growers C.I.C.,Wildland Limited,Scotland,https://mer.markit.com/br-reg/public/project.jsp?project_id=104000000027894,104000000027894,80.713,6.646,0.543,0.0,73.524,0.0,0,0.0,0.0,0.0,0.0,0,0,0.0,0.0,0.0,0.0,100,25722,3858,21864,57.017054,-4.766011,Bog,2025,2125
MDMG Braeroy 22,Under Development,,,Wildland Limited,Scotland,https://mer.markit.com/br-reg/public/project.jsp?project_id=104000000028576,104000000028576,100.04,6.6,0.14,0.0,93.3,0.0,0,0.0,0.0,0.0,0.0,0,0,0.0,0.0,0.0,0.0,100,28501,4275,24226,57.02386,-4.75445,Bog,2025,2125
MDMG Braeroy 23,Under Development,,Organic Farmers & Growers C.I.C.,Wildland Limited,Scotland,https://mer.markit.com/br-reg/public/project.jsp?project_id=104000000029012,104000000029012,42.7,1.08,0.0,0.0,41.62,0.0,0,0.0,0.0,0.0,0.0,0,0,0.0,0.0,0.0,0.0,55,5152,773,4379,56.98005,-4.617895,Bog,2025,2080
MDMG Dalmigavie 21,Validated,,Organic Farmers & Growers C.I.C.,Strath Caulaidh Ltd,Scotland,https://mer.markit.com/br-reg/public/project.jsp?project_id=104000000027756,104000000027756,100.55,10.09,1.48,0.74,88.24,0.0,0,0.0,0.0,0.0,0.0,0,0,0.0,0.0,0.0,0.0,100,36119,5418,30701,57.212464,-4.06248,Bog,2025,2125
MDMG Dalmigavie 22,Under Development,,Organic Farmers & Growers C.I.C.,Strath Caulaidh Ltd,Scotland,https://mer.markit.com/br-reg/public/project.jsp?project_id=104000000028505,104000000028505,91.105,2.81,0.065,17.6,70.63,0.0,0,0.0,0.0,0.0,0.0,0,0,0.0,0.0,0.0,0.0,100,20875,3131,17744,57.20153,-4.067333,Bog,2025,2125
MDMG Dalmigavie 23,Under Development,,Organic Farmers & Growers C.I.C.,Strath Caulaidh Ltd,Scotland,https://mer.markit.com/br-reg/public/project.jsp?project_id=104000000029003,104000000029003,92.16,3.7,0.0,1.08,87.38,0.0,0,0.0,0.0,0.0,0.0,0,0,0.0,0.0,0.0,0.0,90,20115,3017,17098,57.199516,-4.080463,Bog,2025,2115
MDMG Dunachton 20,Under Development,,Organic Farmers & Growers C.I.C.,Strath Caulaidh Ltd,Scotland,https://mer.markit.com/br-reg/public/project.jsp?project_id=104000000028122,104000000028122,57.77,2.55,0.0,0.0,55.22,0.0,0,0.0,0.0,0.0,0.0,0,0,0.0,0.0,0.0,0.0,100,14369,2155,12214,57.17235,-4.03212,Bog,2025,2125
MDMG Dunachton 21,Under Development,,Organic Farmers & Growers C.I.C.,Strath Caulaidh Ltd,Scotland,https://mer.markit.com/br-reg/public/project.jsp?project_id=104000000027761,104000000027761,47.4,3.59,1.84,0.0,41.97,0.0,0,0.0,0.0,0.0,0.0,0,0,0.0,0.0,0.0,0.0,100,16990,2549,14441,57.17094,-4.04675,Bog,2025,2125
MDMG Dunachton 22,Under Development,,Organic Farmers & Growers C.I.C.,Strath Caulaidh Ltd,Scotland,https://mer.markit.com/br-reg/public/project.jsp?project_id=104000000028506,104000000028506,55.42,2.66,0.12,0.0,52.64,0.0,0,0.0,0.0,0.0,0.0,0,0,0.0,0.0,0.0,0.0,100,14304,2146,12158,57.16563,-4.00909,Bog,2025,2125
MDMG Dunmaglass 21,Under Development,,Organic Farmers & Growers C.I.C.,Strath Caulaidh Ltd,Scotland,https://mer.markit.com/br-reg/public/project.jsp?project_id=104000000027762,104000000027762,54.439,4.014,0.305,0.0,50.12,0.0,0,0.0,0.0,0.0,0.0,0,0,0.0,0.0,0.0,0.0,100,16524,2479,14045,57.229524,-4.31429,Bog,2025,2125
MDMG Dunmaglass 22,Under Development,,Organic Farmers & Growers C.I.C.,Strath Caulaidh Ltd,Scotland,https://mer.markit.com/br-reg/public/project.jsp?project_id=104000000028507,104000000028507,58.78,3.16,0.12,0.61,54.89,0.0,0,0.0,0.0,0.0,0.0,0,0,0.0,0.0,0.0,0.0,100,15687,2353,13334,57.224931,-4.322104,Bog,2025,2125
MDMG Dunmaglass 23,Under Development,,Organic Farmers & Growers C.I.C.,Strath Caulaidh Ltd,Scotland,https://mer.markit.com/br-reg/public/project.jsp?project_id=104000000029004,104000000029004,52.05,3.79,0.04,0.0,48.22,0.0,0,0.0,0.0,0.0,0.0,0,0,0.0,0.0,0.0,0.0,90,13799,2070,11729,57.219301,-4.335,Bog,2025,2115
MDMG Farr 20,Under Development,,Organic Farmers & Growers C.I.C.,Strath Caulaidh Ltd,Scotland,https://mer.markit.com/br-reg/public/project.jsp?project_id=104000000028124,104000000028124,258.53,3.03,0.0,152.48,103.02,0.0,0,0.0,0.0,0.0,0.0,0,0,0.0,0.0,0.0,0.0,100,51253,7688,43565,57.326609,-4.10987,Bog,2025,2125
MDMG Farr 21,Under Development,,Organic Farmers & Growers C.I.C.,Strath Caulaidh Ltd,Scotland,https://mer.markit.com/br-reg/public/project.jsp?project_id=104000000027763,104000000027763,73.43,5.78,0.25,0.0,67.4,0.0,0,0.0,0.0,0.0,0.0,0,0,0.0,0.0,0.0,0.0,100,22606,3391,19215,57.343509,-4.086243,Bog,2025,2125
MDMG Farr 22,Under Development,,Organic Farmers & Growers C.I.C.,Strath Caulaidh Ltd,Scotland,https://mer.markit.com/br-reg/public/project.jsp?project_id=104000000028508,104000000028508,73.24,5.15,0.25,0.0,67.84,0.0,0,0.0,0.0,0.0,0.0,0,0,0.0,0.0,0.0,0.0,100,21591,3239,18352,57.27904,-4.159605,Bog,2025,2125
MDMG Glenmazeran 20,Under Development,,Organic Farmers & Growers C.I.C.,Strath Caulaidh Ltd,Scotland,https://mer.markit.com/br-reg/public/project.jsp?project_id=104000000028125,104000000028125,86.35,0.29,0.0,52.33,33.73,0.0,0,0.0,0.0,0.0,0.0,0,0,0.0,0.0,0.0,0.0,90,14395,2159,12236,57.25731,-4.1598,Bog,2025,2115
MDMG Glenmazeran 22,Under Development,,Organic Farmers & Growers C.I.C.,Strath Caulaidh Ltd,Scotland,https://mer.markit.com/br-reg/public/project.jsp?project_id=104000000028509,104000000028509,48.88,3.1,0.38,0.0,45.4,0.0,0,0.0,0.0,0.0,0.0,0,0,0.0,0.0,0.0,0.0,100,14217,2133,12084,57.275515,-4.156081,Bog,2025,2125
MDMG Glenmazeran 23,Under Development,,Organic Farmers & Growers C.I.C.,Strath Caulaidh Ltd,Scotland,https://mer.markit.com/br-reg/public/project.jsp?project_id=104000000029005,104000000029005,62.29,7.21,0.24,0.0,54.84,0.0,0,0.0,0.0,0.0,0.0,0,0,0.0,0.0,0.0,0.0,90,20531,3080,17451,57.278763,-4.176179,Bog,2025,2115
MDMG Glenshero 22,Under Development,,Organic Farmers & Growers C.I.C.,Strath Caulaidh Ltd,Scotland,https://mer.markit.com/br-reg/public/project.jsp?project_id=104000000029006,104000000029006,95.91,8.55,0.0,0.0,87.36,0.0,0,0.0,0.0,0.0,0.0,0,0,0.0,0.0,0.0,0.0,50,15288,2293,12995,57.008244,-4.514459,Bog,2025,2075
MDMG Kinrara 21,Validated,,Organic Farmers & Growers C.I.C.,Strath Caulaidh Ltd,Scotland,https://mer.markit.com/br-reg/public/project.jsp?project_id=104000000027764,104000000027764,291.051,4.464,0.537,176.6,109.45,0.0,0,0.0,0.0,0.0,0.0,0,0,0.0,0.0,0.0,0.0,100,60177,9027,51150,57.245421,-3.996945,Bog,2025,2125
MDMG Kinrara 22,Under Development,,Organic Farmers & Growers C.I.C.,Strath Caulaidh Ltd,Scotland,https://mer.markit.com/br-reg/public/project.jsp?project_id=104000000028510,104000000028510,101.1,1.3,0.05,46.98,52.77,0.0,0,0.0,0.0,0.0,0.0,0,0,0.0,0.0,0.0,0.0,75,15225,2284,12941,57.190679,-3.901228,Bog,2025,2100
MDMG Kinrara 23,Under Development,,Organic Farmers & Growers C.I.C.,Strath Caulaidh Ltd,Scotland,https://mer.markit.com/br-reg/public/project.jsp?project_id=104000000029007,104000000029007,195.23,1.05,1.34,84.39,108.45,0.0,0,0.0,0.0,0.0,0.0,0,0,0.0,0.0,0.0,0.0,55,21374,3206,18168,57.209873,-3.938643,Bog,2025,2080
MDMG Pitmain 20,Under Development,,Organic Farmers & Growers C.I.C.,Strath Caulaidh Ltd,Scotland,https://mer.markit.com/br-reg/public/project.jsp?project_id=104000000028126,104000000028126,54.25,1.29,0.5,0.98,51.48,0.0,0,0.0,0.0,0.0,0.0,0,0,0.0,0.0,0.0,0.0,75,9414,1412,8002,57.138547,-4.0877,Bog,2025,2100
MDMG Pitmain 21,Under Development,,Organic Farmers & Growers C.I.C.,Strath Caulaidh Ltd,Scotland,https://mer.markit.com/br-reg/public/project.jsp?project_id=104000000027765,104000000027765,62.486,1.266,0.821,0.0,60.399,0.0,0,0.0,0.0,0.0,0.0,0,0,0.0,0.0,0.0,0.0,95,13772,2066,11706,57.15623,-4.100618,Bog,2025,2120
MDMG Pitmain 22,Under Development,,Organic Farmers & Growers C.I.C.,Strath Caulaidh Ltd,Scotland,https://mer.markit.com/br-reg/public/project.jsp?project_id=104000000028511,104000000028511,54.96,1.2,0.26,0.0,53.5,0.0,0,0.0,0.0,0.0,0.0,0,0,0.0,0.0,0.0,0.0,75,9125,1369,7756,57.145296,-4.098907,Bog,2025,2100
Middleton Common,Under Development,,,Durham County Council (NPAP),England,https://mer.markit.com/br-reg/public/project.jsp?project_id=104000000029304,104000000029304,27.14,0.9,1.02,0.0,25.22,0.0,0,0.0,0.0,0.0,0.0,0,0,0.0,0.0,0.0,0.0,100,7440,1116,6324,54.687515,-2.088386,Bog,2025,2125
Millerston Peatland Restoration,Under Development,,Soil Association Certification Ltd,Tilhill Forestry,Scotland,https://mer.markit.com/br-reg/public/project.jsp?project_id=104000000029324,104000000029324,5.0,0.0,0.0,5.0,0.0,0.0,0,0.0,0.0,0.0,0.0,0,0,0.0,0.0,0.0,0.0,85,1148,172,976,55.884027,-4.179007,Bog,2025,2110
Mointeach Leacaidh,Restoration Validated,Yes,Organic Farmers & Growers C.I.C.,Scottish Woodlands Ltd,Scotland,https://mer.markit.com/br-reg/public/project.jsp?project_id=104000000028210,104000000028210,149.908,11.33,1.348,0.0,137.23,0.0,0,0.0,0.0,0.0,0.0,0,0,0.0,0.0,0.0,0.0,100,46723,7008,39715,57.646171,-5.195378,Bog,2022,2122
Morsgail 1 [Coltraiseal Mor],Under Development,,Organic Farmers & Growers C.I.C.,Angus Davidson Ltd,Scotland,https://mer.markit.com/br-reg/public/project.jsp?project_id=104000000028512,104000000028512,126.852,0.303,0.571,115.719,10.259,0.0,0,0.0,0.0,0.0,0.0,0,0,0.0,0.0,0.0,0.0,100,24194,3629,20565,58.092012,-6.844867,Bog,2025,2125
Morsgail 2 [Griosamul],Under Development,,Organic Farmers & Growers C.I.C.,Angus Davidson Ltd,Scotland,https://mer.markit.com/br-reg/public/project.jsp?project_id=104000000028535,104000000028535,540.496,54.544,0.727,16.153,469.072,0.0,0,0.0,0.0,0.0,0.0,0,0,0.0,0.0,0.0,0.0,89,163178,24477,138701,58.040548,-6.849759,Bog,2025,2114
Mount Lothian Moss Peatland Restoration,Under Development,,Organic Farmers & Growers C.I.C.,Glenrath Farms Ltd,Scotland,https://mer.markit.com/br-reg/public/project.jsp?project_id=104000000028587,104000000028587,52.0,0.0,0.0,0.0,0.0,0.0,0,0.0,0.0,52.0,0.0,0,0,0.0,0.0,0.0,0.0,100,9360,1404,7956,55.787957,-3.188,Bog,2025,2125
Moy Crofts,Under Development,,Soil Association Certification Ltd,Caledonian Climate,Scotland,https://mer.markit.com/br-reg/public/project.jsp?project_id=104000000028573,104000000028573,63.65,3.38,0.15,0.0,60.12,0.0,0,0.0,0.0,0.0,0.0,0,0,0.0,0.0,0.0,0.0,100,16953,2543,14410,56.92308,-5.031356,Bog,2025,2125
Muckrach Peatland Phase 1,Under Development,,Organic Farmers & Growers C.I.C.,Savills (UK) Ltd,Scotland,https://mer.markit.com/br-reg/public/project.jsp?project_id=104000000028185,104000000028185,32.45,1.36,0.0,24.52,6.57,0.0,0,0.0,0.0,0.0,0.0,0,0,0.0,0.0,0.0,0.0,65,5173,776,4397,57.335093,-3.711643,Bog,2025,2090
Mullach a' Bhreun Leitir,Under Development,,Organic Farmers & Growers C.I.C.,Angus Davidson Ltd,Scotland,https://mer.markit.com/br-reg/public/project.jsp?project_id=104000000028282,104000000028282,145.371,11.67,1.906,2.648,129.147,0.0,0,0.0,0.0,0.0,0.0,0,0,0.0,0.0,0.0,0.0,100,47305,7096,40209,57.901745,-4.882108,Bog,2025,2125
Mullach a' Bhreun Leitir (East Rhidorroch),Validated,,Organic Farmers & Growers C.I.C.,Angus Davidson Ltd,Scotland,https://mer.markit.com/br-reg/public/project.jsp?project_id=104000000028289,104000000028289,95.598,8.029,1.47,0.0,86.099,0.0,0,0.0,0.0,0.0,0.0,0,0,0.0,0.0,0.0,0.0,100,31998,4800,27198,57.967039,-4.733464,Bog,2025,2125
New House,Under Development,,Organic Farmers & Growers C.I.C.,Yorkshire Wildlife Trust,England,https://mer.markit.com/br-reg/public/project.jsp?project_id=104000000027003,104000000027003,18.45,18.45,0.0,0.0,0.0,0.0,0,0.0,0.0,0.0,0.0,0,0,0.0,0.0,0.0,0.0,30,1459,219,1240,54.251644,-2.093587,Bog,2025,2055
Northern Estates peatland restoration - Phase 1,Under Development,,,Wildland Limited,Scotland,https://mer.markit.com/br-reg/public/project.jsp?project_id=104000000029016,104000000029016,657.37,39.16,0.0,576.36,41.85,0.0,0,0.0,0.0,0.0,0.0,0,0,0.0,0.0,0.0,0.0,50,107132,16070,91062,58.425665,-4.450341,Bog,2025,2075
NSM Kirklea,Under Development,,,Stanley Wright,Scotland,https://mer.markit.com/br-reg/public/project.jsp?project_id=104000000029290,104000000029290,74.11,0.4,0.0,68.13,5.58,0.0,0,0.0,0.0,0.0,0.0,0,0,0.0,0.0,0.0,0.0,60,12005,1801,10204,55.447514,-3.949313,Bog,2025,2085
Ockerton Court North Phase 1,Under Development,,,DUCHY OF CORNWALL,England,https://mer.markit.com/br-reg/public/project.jsp?project_id=104000000028637,104000000028637,97.56,0.0,0.0,0.0,0.0,0.0,0,6.1,2.17,16.77,72.52,0,0,0.0,0.0,0.0,0.0,30,9131,1370,7761,50.666594,-3.988045,Bog,2025,2055
Oss Flats,Under Development,,Organic Farmers & Growers C.I.C.,Forest Carbon Ltd,Scotland,https://mer.markit.com/br-reg/public/project.jsp?project_id=104000000027482,104000000027482,126.75,3.9,2.62,4.03,116.2,0.0,0,0.0,0.0,0.0,0.0,0,0,0.0,0.0,0.0,0.0,100,32382,4857,27525,56.358073,-4.745085,Bog,2025,2125
Pennant,Under Development,,Organic Farmers & Growers C.I.C.,Snowdonia National Park Authority,Wales,https://mer.markit.com/br-reg/public/project.jsp?project_id=104000000028556,104000000028556,34.18,4.05,0.33,0.0,29.8,0.0,0,0.0,0.0,0.0,0.0,0,0,0.0,0.0,0.0,0.0,35,4540,681,3859,52.775874,-3.658795,Bog,2025,2060
Phase 2 Amair (N),Under Development,,,Ossian (Scotland) Limited,Scotland,https://mer.markit.com/br-reg/public/project.jsp?project_id=104000000029156,104000000029156,142.4,8.86,0.72,0.0,132.82,0.0,0,0.0,0.0,0.0,0.0,0,0,0.0,0.0,0.0,0.0,80,30807,4621,26186,56.320103,-4.545036,Bog,2025,2105
Phase 3 Loch na Lap (O),Under Development,,,Ossian (Scotland) Limited,Scotland,https://mer.markit.com/br-reg/public/project.jsp?project_id=104000000029267,104000000029267,182.33,11.39,2.42,0.0,168.52,0.0,0,0.0,0.0,0.0,0.0,0,0,0.0,0.0,0.0,0.0,100,53538,8030,45508,56.800892,-4.633234,Bog,2025,2125
Prison Farm Phase 1,Under Development,,Organic Farmers & Growers C.I.C.,DUCHY OF CORNWALL,England,https://mer.markit.com/br-reg/public/project.jsp?project_id=104000000028130,104000000028130,111.64,1.35,0.0,78.32,31.97,0.0,0,0.0,0.0,0.0,0.0,0,0,0.0,0.0,0.0,0.0,30,6659,999,5660,50.570017,-4.007983,Bog,2025,2055
Quoich 2 [Alltbeithe],Under Development,,Organic Farmers & Growers C.I.C.,Angus Davidson Ltd,Scotland,https://mer.markit.com/br-reg/public/project.jsp?project_id=104000000028534,104000000028534,233.401,17.534,1.867,20.58,193.42,0.0,0,0.0,0.0,0.0,0.0,0,0,0.0,0.0,0.0,0.0,91,66187,9928,56259,57.113198,-5.26331,Bog,2025,2116
Quoich 3 [Gleouraich],Under Development,,Organic Farmers & Growers C.I.C.,Angus Davidson Ltd,Scotland,https://mer.markit.com/br-reg/public/project.jsp?project_id=104000000028533,104000000028533,150.555,8.977,0.178,0.0,141.4,0.0,0,0.0,0.0,0.0,0.0,0,0,0.0,0.0,0.0,0.0,79,32670,4900,27770,57.079031,-5.228944,Bog,2025,2104
Red Lake Phase 1,Under Development,,Organic Farmers & Growers C.I.C.,DUCHY OF CORNWALL,England,https://mer.markit.com/br-reg/public/project.jsp?project_id=104000000028129,104000000028129,35.81,0.0,0.0,35.81,0.0,0.0,0,0.0,0.0,0.0,0.0,0,0,0.0,0.0,0.0,0.0,30,1934,290,1644,50.482652,-3.908423,Bog,2025,2055
Rhiwargor,Validated,,Organic Farmers & Growers C.I.C.,Severn Trent Plc,Wales,https://mer.markit.com/br-reg/public/project.jsp?project_id=104000000027771,104000000027771,296.036,1.513,0.003,46.831,247.689,0.0,0,0.0,0.0,0.0,0.0,0,0,0.0,0.0,0.0,0.0,30,16694,2504,14190,52.807657,-3.569505,Bog,2025,2055
Ridge Achadunan,Under Development,,"SAC Consulting , SRUC",Ridge Carbon Capture,Scotland,https://mer.markit.com/br-reg/public/project.jsp?project_id=104000000028514,104000000028514,96.82,2.91,1.45,2.13,90.33,0.0,0,0.0,0.0,0.0,0.0,0,0,0.0,0.0,0.0,0.0,50,11995,1799,10196,56.282,-4.8495,Bog,2025,2075
Ridge Achlian,Under Development,,Organic Farmers & Growers C.I.C.,Ridge Carbon Capture,Scotland,https://mer.markit.com/br-reg/public/project.jsp?project_id=104000000028153,104000000028153,170.54,3.38,1.25,65.25,100.66,0.0,0,0.0,0.0,0.0,0.0,0,0,0.0,0.0,0.0,0.0,100,37906,5686,32220,56.353399,-4.985968,Bog,2025,2125
Ridge Craigmuie,Under Development,,Organic Farmers & Growers C.I.C.,Ridge Carbon Capture,Scotland,https://mer.markit.com/br-reg/public/project.jsp?project_id=104000000028930,104000000028930,45.14,0.04,0.0,44.83,0.27,0.0,0,0.0,0.0,0.0,0.0,0,0,0.0,0.0,0.0,0.0,100,12209,1831,10378,55.142622,-3.962662,Bog,2025,2125
Ridge Dell,Under Development,,Organic Farmers & Growers C.I.C.,Ridge Carbon Capture,Scotland,https://mer.markit.com/br-reg/public/project.jsp?project_id=104000000029056,104000000029056,72.95,5.02,3.8,0.0,64.13,0.0,0,0.0,0.0,0.0,0.0,0,0,0.0,0.0,0.0,0.0,100,23991,3599,20392,57.141889,-4.482196,Bog,2025,2125
Ridge Graham 1,Validated,Yes,Organic Farmers & Growers C.I.C.,Ridge Carbon Capture,England,https://mer.markit.com/br-reg/public/project.jsp?project_id=104000000028155,104000000028155,132.75,2.18,3.17,1.41,125.99,0.0,0,0.0,0.0,0.0,0.0,0,0,0.0,0.0,0.0,0.0,100,32225,4834,27391,55.121719,-2.636572,Bog,2023,2123
Ridge Graham 2,Under Development,,,Ridge Carbon Capture,England,https://mer.markit.com/br-reg/public/project.jsp?project_id=104000000028437,104000000028437,128.92,1.53,0.09,0.0,127.3,0.0,0,0.0,0.0,0.0,0.0,0,0,0.0,0.0,0.0,0.0,100,27176,4076,23100,55.117283,-2.625526,Bog,2025,2125
Ridge Rottal,Under Development,,Organic Farmers & Growers C.I.C.,Ridge Carbon Capture,Scotland,https://mer.markit.com/br-reg/public/project.jsp?project_id=104000000029010,104000000029010,66.78,0.31,0.2,60.64,5.63,0.0,0,0.0,0.0,0.0,0.0,0,0,0.0,0.0,0.0,0.0,50,9069,1360,7709,56.838971,-3.009642,Bog,2025,2075
Rothiemurchus Estate - peatland restoration - Phase 1,Under Development,,Soil Association Certification Ltd,Bidwells LLP,Scotland,https://mer.markit.com/br-reg/public/project.jsp?project_id=104000000029433,104000000029433,71.02,3.44,0.0,0.0,67.58,0.0,0,0.0,0.0,0.0,0.0,0,0,0.0,0.0,0.0,0.0,50,8874,1331,7543,57.106043,-3.791217,Bog,2025,2075
Rottal Estate (Phase 1),Restoration Validated,Yes,Organic Farmers & Growers C.I.C.,Caledonian Climate,Scotland,https://mer.markit.com/br-reg/public/project.jsp?project_id=104000000026991,104000000026991,27.285,0.786,0.209,11.69,14.6,0.0,0,0.0,0.0,0.0,0.0,0,0,0.0,0.0,0.0,0.0,100,6462,969,5493,56.845219,-3.014728,Bog,2020,2120
RSPB Greylake Restoration Project,Under Development,,Soil Association Certification Ltd,RSPB,England,https://mer.markit.com/br-reg/public/project.jsp?project_id=104000000029086,104000000029086,32.4,0.0,0.0,0.0,0.0,0.0,0,0.0,0.0,0.0,0.0,0,0,0.0,0.0,25.72,6.68,100,24007,3601,20406,51.111054,-2.869907,Fen,2025,2125
RSPB Lakenheath Fen Restoration Project,Under Development,,Soil Association Certification Ltd,RSPB,England,https://mer.markit.com/br-reg/public/project.jsp?project_id=104000000028985,104000000028985,7.0,0.0,0.0,0.0,0.0,0.0,0,0.0,0.0,0.0,0.0,0,0,7.0,0.0,0.0,0.0,30,3732,560,3172,52.446134,0.47052,Fen,2025,2055
Sandside North,Under Development,,Soil Association Certification Ltd,Caledonian Climate,Scotland,https://mer.markit.com/br-reg/public/project.jsp?project_id=104000000028382,104000000028382,100.7,4.93,0.25,2.64,92.88,0.0,0,0.0,0.0,0.0,0.0,0,0,0.0,0.0,0.0,0.0,85,21833,3275,18558,58.508599,-3.779753,Bog,2025,2110
Scaliscro Peatland Restoration,Validated,Yes,Organic Farmers & Growers C.I.C.,Scaliscro,Scotland,https://mer.markit.com/br-reg/public/project.jsp?project_id=104000000028497,104000000028497,227.95,12.78,2.01,65.44,147.72,0.0,0,0.0,0.0,0.0,0.0,0,0,0.0,0.0,0.0,0.0,100,64059,9609,54450,58.127044,-6.846231,Bog,2023,2123
Scaliscro Peatland Restoration Phase 2,Under Development,,Organic Farmers & Growers C.I.C.,Scaliscro,Scotland,https://mer.markit.com/br-reg/public/project.jsp?project_id=104000000029145,104000000029145,109.04,4.24,3.88,4.53,96.39,0.0,0,0.0,0.0,0.0,0.0,0,0,0.0,0.0,0.0,0.0,70,21471,3221,18250,58.127044,-6.846231,Bog,2025,2095
Score Head,Under Development,,Soil Association Certification Ltd,Forest Carbon Ltd,Scotland,https://mer.markit.com/br-reg/public/project.jsp?project_id=104000000029061,104000000029061,53.45,3.05,0.23,0.53,49.64,0.0,0,0.0,0.0,0.0,0.0,0,0,0.0,0.0,0.0,0.0,90,12734,1909,10825,55.465596,-2.1866,Bog,2025,2115
Smithills Moor,Under Development,,Soil Association Certification Ltd,Woodland Trust,England,https://mer.markit.com/br-reg/public/project.jsp?project_id=104000000028064,104000000028064,140.33,18.56,27.38,58.41,35.98,0.0,0,0.0,0.0,0.0,0.0,0,0,0.0,0.0,0.0,0.0,100,96784,14518,82266,53.621,-2.517,Bog,2025,2125
Snailsden,Under Development,,,Forest Carbon Ltd,England,https://mer.markit.com/br-reg/public/project.jsp?project_id=104000000028697,104000000028697,327.179,7.854,0.0,0.0,319.325,0.0,0,0.0,0.0,0.0,0.0,0,0,0.0,0.0,0.0,0.0,100,71121,10668,60453,53.527991,-1.797821,Bog,2025,2125
Snaizeholme Peat,Under Development,,,Woodland Trust,England,https://mer.markit.com/br-reg/public/project.jsp?project_id=104000000028994,104000000028994,61.41,0.06,0.48,11.6,49.27,0.0,0,0.0,0.0,0.0,0.0,0,0,0.0,0.0,0.0,0.0,60,8123,1218,6905,54.258,-2.271,Bog,2025,2085
South Stainmore,Under Development,,,Durham County Council (NPAP),England,https://mer.markit.com/br-reg/public/project.jsp?project_id=104000000029106,104000000029106,144.4,7.3,2.42,22.13,112.55,0.0,0,0.0,0.0,0.0,0.0,0,0,0.0,0.0,0.0,0.0,100,40674,6101,34573,54.487899,-2.185202,Bog,2025,2125
Strathbran 1 [Carn Daraich],Under Development,,Organic Farmers & Growers C.I.C.,Angus Davidson Ltd,Scotland,https://mer.markit.com/br-reg/public/project.jsp?project_id=104000000028440,104000000028440,230.998,11.679,0.124,14.79,204.405,0.0,0,0.0,0.0,0.0,0.0,0,0,0.0,0.0,0.0,0.0,100,59957,8994,50963,57.62473,-4.96901,Bog,2025,2125
Strathcanaird East,Under Development,,Soil Association Certification Ltd,Caledonian Climate,Scotland,https://mer.markit.com/br-reg/public/project.jsp?project_id=104000000028990,104000000028990,263.73,26.0,5.78,19.8,212.15,0.0,0,0.0,0.0,0.0,0.0,0,0,0.0,0.0,0.0,0.0,63,55479,8323,47156,57.994906,-5.011454,Bog,2025,2088
Strathcanaird West,Under Development,,Soil Association Certification Ltd,Caledonian Climate,Scotland,https://mer.markit.com/br-reg/public/project.jsp?project_id=104000000028991,104000000028991,211.01,4.27,1.84,100.2,104.7,0.0,0,0.0,0.0,0.0,0.0,0,0,0.0,0.0,0.0,0.0,55,30555,4583,25972,57.992918,-5.094217,Bog,2025,2080
Strathconon Phase 1-3,Validated,,Organic Farmers & Growers C.I.C.,Angus Davidson Ltd,Scotland,https://mer.markit.com/br-reg/public/project.jsp?project_id=104000000026982,104000000026982,332.42,28.46,6.37,0.0,297.59,0.0,0,0.0,0.0,0.0,0.0,0,0,0.0,0.0,0.0,0.0,100,114066,17110,96956,57.557438,-4.886606,Bog,2025,2125
Strathvaich Phase 4,Validated,Yes,Organic Farmers & Growers C.I.C.,Strathvaich Farms LLP,Scotland,https://mer.markit.com/br-reg/public/project.jsp?project_id=104000000028189,104000000028189,205.354,21.6,0.0,4.554,179.2,0.0,0,0.0,0.0,0.0,0.0,0,0,0.0,0.0,0.0,0.0,100,70595,10589,60006,57.712747,-4.782649,Bog,2022,2122
Strathvaich Phase 5,Under Development,,Soil Association Certification Ltd,Strathvaich Farms LLP,Scotland,https://mer.markit.com/br-reg/public/project.jsp?project_id=104000000028813,104000000028813,134.09,10.02,0.0,0.0,124.07,0.0,0,0.0,0.0,0.0,0.0,0,0,0.0,0.0,0.0,0.0,65,25829,3874,21955,57.736344,-4.763072,Bog,2025,2090
Strathvaich Phase 6,Under Development,,Soil Association Certification Ltd,Strathvaich Farms LLP,Scotland,https://mer.markit.com/br-reg/public/project.jsp?project_id=104000000029028,104000000029028,135.81,8.21,0.46,1.6,125.54,0.0,0,0.0,0.0,0.0,0.0,0,0,0.0,0.0,0.0,0.0,60,23617,3543,20074,57.722638,-4.814096,Bog,2025,2085
Strone Estate (Phase 1),Under Development,,Soil Association Certification Ltd,Caledonian Climate,Scotland,https://mer.markit.com/br-reg/public/project.jsp?project_id=104000000029013,104000000029013,116.31,7.56,2.45,0.0,106.3,0.0,0,0.0,0.0,0.0,0.0,0,0,0.0,0.0,0.0,0.0,51,21706,3256,18450,56.271167,-4.851931,Bog,2025,2076
Swan Lochs - Phase 2,Validated,,Soil Association Certification Ltd,Galbraith Group,Scotland,https://mer.markit.com/br-reg/public/project.jsp?project_id=104000000028205,104000000028205,109.313,8.35,0.213,0.0,100.75,0.0,0,0.0,0.0,0.0,0.0,0,0,0.0,0.0,0.0,0.0,50,16504,2476,14028,58.26892,-4.85901,Bog,2025,2075
Swarthghyll,Validated,Yes,Organic Farmers & Growers C.I.C.,The Future Forest Company,England,https://mer.markit.com/br-reg/public/project.jsp?project_id=104000000028270,104000000028270,47.9,1.64,0.0,20.2,26.06,0.0,0,0.0,0.0,0.0,0.0,0,0,0.0,0.0,0.0,0.0,100,11175,1676,9499,54.247838,-2.252921,Bog,2023,2123
"Talla, Gameshope and Carrifran",Validated,Yes,Organic Farmers & Growers C.I.C.,Forest Carbon Ltd,Scotland,https://mer.markit.com/br-reg/public/project.jsp?project_id=104000000026992,104000000026992,89.5,89.5,0.0,0.0,0.0,0.0,0,0.0,0.0,0.0,0.0,0,0,0.0,0.0,0.0,0.0,100,21622,3243,18379,55.434631,-3.376505,Bog,2021,2121
Tarmachan,Under Development,,Soil Association Certification Ltd,Forest Carbon Ltd,Scotland,https://mer.markit.com/br-reg/public/project.jsp?project_id=104000000029059,104000000029059,104.07,2.19,2.76,68.7,30.42,0.0,0,0.0,0.0,0.0,0.0,0,0,0.0,0.0,0.0,0.0,40,12366,1855,10511,56.4988,-4.32139,Bog,2025,2065
Tavy Head Phase 1,Under Development,,,DUCHY OF CORNWALL,England,https://mer.markit.com/br-reg/public/project.jsp?project_id=104000000028676,104000000028676,157.23,10.69,13.6,0.0,132.94,0.0,0,0.0,0.0,0.0,0.0,0,0,0.0,0.0,0.0,0.0,30,19836,2975,16861,50.618889,-3.990273,Bog,2025,2055
"The Cutting, Forsinard",Under Development,,Soil Association Certification Ltd,RSPB,Scotland,https://mer.markit.com/br-reg/public/project.jsp?project_id=104000000028582,104000000028582,70.676,0.706,0.005,32.191,37.774,0.0,0,0.0,0.0,0.0,0.0,0,0,0.0,0.0,0.0,0.0,65,8988,1348,7640,58.389232,-4.01495,Bog,2025,2090
The Oa Phase 2,Under Development,,Soil Association Certification Ltd,RSPB,Scotland,https://mer.markit.com/br-reg/public/project.jsp?project_id=104000000029260,104000000029260,70.43,6.85,0.0,7.6,55.98,0.0,0,0.0,0.0,0.0,0.0,0,0,0.0,0.0,0.0,0.0,55,12046,1807,10239,55.596187,-6.322415,Bog,2025,2080
Totto Hill,Validated,,Soil Association Certification Ltd,Scottish Woodlands Ltd,Scotland,https://mer.markit.com/br-reg/public/project.jsp?project_id=104000000028026,104000000028026,153.58,4.5,0.0,0.0,149.08,0.0,0,0.0,0.0,0.0,0.0,0,0,0.0,0.0,0.0,0.0,100,34651,5198,29453,55.869905,-3.070644,Bog,2025,2125
Tressady Phase 1,Validated,Yes,Organic Farmers & Growers C.I.C.,Land Carbon Ltd,Scotland,https://mer.markit.com/br-reg/public/project.jsp?project_id=104000000028539,104000000028539,66.71,0.85,0.06,30.7,35.1,0.0,0,0.0,0.0,0.0,0.0,0,0,0.0,0.0,0.0,0.0,95,12753,1913,10840,58.05171,-4.21452,Bog,2023,2118
Tulchan of Glen Isla,Under Development,,Soil Association Certification Ltd,Scottish Woodlands Ltd,Scotland,https://mer.markit.com/br-reg/public/project.jsp?project_id=104000000028657,104000000028657,175.5,0.4,0.0,165.04,10.06,0.0,0,0.0,0.0,0.0,0.0,0,0,0.0,0.0,0.0,0.0,50,23529,3529,20000,56.830449,-3.342087,Bog,2025,2075
Urlar 1,Under Development,,Soil Association Certification Ltd,Caledonian Climate,Scotland,https://mer.markit.com/br-reg/public/project.jsp?project_id=104000000028992,104000000028992,187.06,6.42,1.08,113.16,66.4,0.0,0,0.0,0.0,0.0,0.0,0,0,0.0,0.0,0.0,0.0,58,34151,5122,29029,56.564777,-3.934807,Bog,2025,2083
Walden Common,Under Development,,Organic Farmers & Growers C.I.C.,Yorkshire Wildlife Trust,England,https://mer.markit.com/br-reg/public/project.jsp?project_id=104000000029098,104000000029098,448.738,6.57,0.07,29.628,412.47,0.0,0,0.0,0.0,0.0,0.0,0,0,0.0,0.0,0.0,0.0,50,48920,7338,41582,54.217525,-2.027568,Bog,2025,2075
Wasdale Head,Under Development,,,Lonsdale Settled Estate,England,https://mer.markit.com/br-reg/public/project.jsp?project_id=104000000029068,104000000029068,207.57,0.85,0.0,177.08,29.64,0.0,0,0.0,0.0,0.0,0.0,0,0,0.0,0.0,0.0,0.0,100,54746,8212,46534,54.466336,-2.683438,Bog,2025,2125
Wedderhill,Under Development,,Organic Farmers & Growers C.I.C.,Angus Davidson Ltd,Scotland,https://mer.markit.com/br-reg/public/project.jsp?project_id=104000000029391,104000000029391,120.084,0.359,0.0,112.542,7.183,0.0,0,0.0,0.0,0.0,0.0,0,0,0.0,0.0,0.0,0.0,100,40093,6014,34079,58.368097,-3.868415,Bog,2025,2125
Wemyss and March Phase 1,Restoration Validated,,Organic Farmers & Growers C.I.C.,Forest Carbon Ltd,Scotland,https://mer.markit.com/br-reg/public/project.jsp?project_id=104000000027268,104000000027268,172.77,8.02,0.21,0.0,164.54,0.0,0,0.0,0.0,0.0,0.0,0,0,0.0,0.0,0.0,0.0,100,43914,6587,37327,55.468254,-3.34287,Bog,2025,2125
Wemyss and March Phase 2,Validated,,Soil Association Certification Ltd,Forest Carbon Ltd,Scotland,https://mer.markit.com/br-reg/public/project.jsp?project_id=104000000028273,104000000028273,174.203,5.466,0.0,58.719,110.018,0.0,0,0.0,0.0,0.0,0.0,0,0,0.0,0.0,0.0,0.0,95,37874,5681,32193,55.453792,-3.26648,Bog,2025,2120
Wemyss and March Phase 3,Under Development,,Soil Association Certification Ltd,Forest Carbon Ltd,Scotland,https://mer.markit.com/br-reg/public/project.jsp?project_id=104000000029040,104000000029040,89.72,4.28,0.0,0.0,85.44,0.0,0,0.0,0.0,0.0,0.0,0,0,0.0,0.0,0.0,0.0,70,15644,2347,13297,55.459067,-3.277723,Bog,2025,2095
Wemyss and March - Syart Burn,Under Development,,,Forest Carbon Ltd,Scotland,https://mer.markit.com/br-reg/public/project.jsp?project_id=104000000029341,104000000029341,72.43,3.0,0.0,1.43,68.0,0.0,0,0.0,0.0,0.0,0.0,0,0,0.0,0.0,0.0,0.0,100,17650,2648,15002,55.469145,-3.259067,Bog,2025,2125
Wicken Fen,Under Development,,,National Trust,England,https://mer.markit.com/br-reg/public/project.jsp?project_id=104000000029011,104000000029011,63.06,0.0,0.0,0.0,0.0,0.0,0,0.0,0.0,0.0,0.0,0,0,0.0,0.0,0.0,63.06,30,24901,3735,21166,52.308069,0.270645,Fen,2025,2055
Wolf Island,Under Development,,Organic Farmers & Growers C.I.C.,RSPB,Northern Ireland,https://mer.markit.com/br-reg/public/project.jsp?project_id=104000000029021,104000000029021,69.15,2.61,0.0,26.17,40.37,0.0,0,0.0,0.0,0.0,0.0,0,0,0.0,0.0,0.0,0.0,100,18379,2757,15622,54.909318,-6.559064,Bog,2025,2125
Wyvis One Estate (Loch Misirich),Under Development,,Organic Farmers & Growers C.I.C.,Angus Davidson Ltd,Scotland,https://mer.markit.com/br-reg/public/project.jsp?project_id=104000000028633,104000000028633,198.587,18.202,1.299,0.0,179.086,0.0,0,0.0,0.0,0.0,0.0,0,0,0.0,0.0,0.0,0.0,100,66109,9916,56193,57.677374,-4.486837,Bog,2025,2125
Yockenthwaite and Chapel Moor,Under Development,,Organic Farmers & Growers C.I.C.,Yorkshire Wildlife Trust,England,https://mer.markit.com/br-reg/public/project.jsp?project_id=104000000029049,104000000029049,110.27,2.14,5.74,0.0,102.39,0.0,0,0.0,0.0,0.0,0.0,0,0,0.0,0.0,0.0,0.0,65,19710,2957,16753,54.223737,-2.14107,Bog,2025,2090
"An Suidhe, Eredine",Under Development,,Organic Farmers & Growers C.I.C.,Forestry and Land Scotland,Scotland,https://mer.markit.com/br-reg/public/master-project.jsp?project_id=103000000017283,104000000028983,50.0,1.5,0.0,0.0,48.5,0.0,0,0.0,0.0,0.0,0.0,0,0,0.0,0.0,0.0,0.0,100,11490,1809,9681,56.222508,-5.222642,Bog,2025,2125
"Creagan na Corr, South Rannoch",Under Development,,Organic Farmers & Growers C.I.C.,Forestry and Land Scotland,Scotland,https://mer.markit.com/br-reg/public/master-project.jsp?project_id=103000000017283,104000000029008,30.0,2.0,0.0,0.0,28.0,0.0,0,0.0,0.0,0.0,0.0,0,0,0.0,0.0,0.0,0.0,100,10134,1596,8538,56.657017,-4.27237,Bog,2025,2125
Glengarry Fhudair,Under Development,,Organic Farmers & Growers C.I.C.,Forestry and Land Scotland,Scotland,https://mer.markit.com/br-reg/public/master-project.jsp?project_id=103000000017283,104000000028997,194.0,8.0,4.0,0.0,182.0,0.0,0,0.0,0.0,0.0,0.0,0,0,0.0,0.0,0.0,0.0,100,51316,8083,43233,57.016278,-4.968089,Bog,2025,2125
"Glen Oykel, Benmore",Under Development,,Organic Farmers & Growers C.I.C.,Forestry and Land Scotland,Scotland,https://mer.markit.com/br-reg/public/master-project.jsp?project_id=103000000017283,104000000028989,128.0,2.5,0.5,75.0,50.0,0.0,0,0.0,0.0,0.0,0.0,0,0,0.0,0.0,0.0,0.0,100,33966,5350,28616,58.015461,-4.860772,Bog,2025,2125
Gothie and Goyle Hill,Under Development,,Organic Farmers & Growers C.I.C.,Forestry and Land Scotland,Scotland,https://mer.markit.com/br-reg/public/master-project.jsp?project_id=103000000017283,104000000028984,45.0,2.0,0.0,0.0,43.0,0.0,0,0.0,0.0,0.0,0.0,0,0,0.0,0.0,0.0,0.0,100,11049,1740,9309,56.930891,-2.524118,Bog,2025,2125
Saughen Braes,Under Development,,Organic Farmers & Growers C.I.C.,Forestry and Land Scotland,Scotland,https://mer.markit.com/br-reg/public/master-project.jsp?project_id=103000000017283,104000000029434,112.0,0.0,0.0,112.0,0.0,0.0,0,0.0,0.0,0.0,0.0,0,0,0.0,0.0,0.0,0.0,75,22680,3402,19278,55.979361,-4.461682,Bog,2025,2100
South Laggan,Under Development,,,Forestry and Land Scotland,Scotland,https://mer.markit.com/br-reg/public/master-project.jsp?project_id=103000000017283,104000000029436,183.42,3.56,4.56,0.0,175.3,0.0,0,0.0,0.0,0.0,0.0,0,0,0.0,0.0,0.0,0.0,65,29251,4388,24863,57.027947,-4.772887,Bog,2025,2090
